Name	lat	lng	population
El Tarter	42.57952	1.65362	1721
Sant Julià de Lòria	42.46372	1.49129	921
Pas de la Casa	42.54277	1.73361	2106
Ordino	42.55623	1.53319	1296
les Escaldes	42.50729	1.53414	1033
la Massana	42.54499	1.51483	1245
Encamp	42.53474	1.58014	1257
Canillo	42.5676	1.59756	1561
Arinsal	42.57205	1.48453	1465
Andorra la Vella	42.50779	1.52109	1037
Umm Al Quwain City	25.56473	55.55517	2
Ras Al Khaimah City	25.78953	55.9432	2
Muzayri‘	23.14355	53.7881	123
Murbaḩ	25.27623	56.36256	15
Zayed City	23.65416	53.70522	124
Khawr Fakkān	25.33132	56.34199	20
Dubai	25.07725	55.30927	24
Dibba Al-Fujairah	25.59246	56.26176	16
Dibba Al-Hisn	25.61955	56.27291	4
Sharjah	25.33737	55.41206	6
Ar Ruways	24.11028	52.73056	16
Al Fujairah City	25.11641	56.34141	15
Al Ain City	24.19167	55.76056	275
Ajman City	25.40177	55.47878	16
Adh Dhayd	25.28812	55.88157	114
Abu Dhabi	24.45118	54.39696	13
Khalifah A City	24.42588	54.605	1
Bani Yas City	24.30978	54.62944	16
Musaffah	24.35893	54.48267	10
Al Shamkhah City	24.39268	54.70779	18
Reef Al Fujairah City	25.14479	56.24764	187
Zorkot	33.54149	69.73446	1845
Wulêswālī Bihsūd	34.3436	67.90567	2960
Kuhsān	34.65389	61.19778	740
Lāsh	35.3782	64.77457	1927
Tukzār	35.94831	66.42132	1210
Mīray	33.32462	68.44068	2077
Āq Kupruk	36.08352	66.84029	719
Zurmat	33.43778	69.02774	2150
Zaybāk	36.52947	71.3441	2616
Zīārat-e Shāh Maqşūd	31.9848	65.4736	1577
Zindah Jān	34.34264	61.74675	834
Zarghūn Shahr	32.84734	68.44573	2120
Zaṟah Sharan	33.14641	68.79213	2154
Zaranj	30.95962	61.86037	489
Zamtō Kêlay	32.3726	66.17708	1925
Yangī Qal‘ah	37.46572	69.61131	471
Bāzār-e Yakāwlang	34.73525	66.97379	2585
Yaḩyá Khēl	32.93742	68.64622	2136
Wāshēr	32.25122	63.85553	1175
Tōrmay	33.68847	68.40205	2296
Tūlak	33.97509	63.72868	2275
Tītān	33.69032	63.86361	2194
Tīr Pul	34.59431	61.26895	751
Taywarah	33.52118	64.42116	2160
Bāzār-e Tashkān	36.88168	70.27674	1285
Tarinkot	32.62998	65.87806	1325
Taloqan	36.73605	69.53451	801
Tagāw-Bāy	35.69941	66.06164	1666
Tagāb	34.85501	69.64917	1335
Markaz-e Ḩukūmat-e Sulţān-e Bakwāh	32.24139	62.94936	724
Spīn Bōldak	31.00575	66.40001	1218
Spērah	33.20204	69.5152	1743
Sōzmah Qal‘ah	36.09916	66.20823	870
Siyāhgird	35.00553	68.85578	1878
Sheywah	34.57169	70.58859	602
Shīnḏanḏ	33.30294	62.1474	1071
Shaykh Amīr Kêlay	33.28744	69.91283	1207
Qāshqāl	35.03975	69.00685	1733
Shibirghān	36.66757	65.7529	360
Shwāk	33.42386	69.37684	2300
Shahr-e Şafā	31.80347	66.32376	1257
Shahrān	36.97984	70.73928	2093
Shahrak	34.10737	64.3052	2357
‘Alāqahdārī Shāh Jōy	32.52154	67.41315	1865
Wulêswālī Sayyid Karam	33.69056	69.36881	2458
Markaz-e Sayyidābād	34.00037	68.71346	2113
Şayād	36.13529	65.8297	946
Sidqābād	35.02298	69.35112	1486
Sāyagaz	32.56521	67.03324	1673
Sar-e Tayghān	33.50998	65.67632	1423
Sarōbī	34.58962	69.76005	987
Sar Kāṉī	34.79023	71.10962	792
Sarfirāz Kalā	32.98333	67.96517	2106
Sar-e Pul	36.21544	65.93249	636
Sar Chakān	35.70177	65.23055	1348
Sangīn	32.07275	64.8359	885
Sang-e Māshah	33.1396	67.44046	2484
Sang-e Chārak	35.84972	66.43694	1483
Sang Atesh	35.248	63.0044	634
Sangar Sarāy	34.40744	70.63937	517
Aībak	36.26468	68.01551	969
Rū-ye Sang	35.31999	67.63387	1751
Rūdbār	30.15	62.6	556
Rustāq	37.12604	69.83045	1314
Rabāţ-e Sangī-ye Pā’īn	34.79951	62.13917	1192
Rāmak	33.52234	68.6264	2183
Qurghān	36.91939	65.0649	312
Quchanghī	34.06183	66.27801	2456
Sangalak-i-Kaisar	35.68747	64.29318	1258
Qarqīn	37.41853	66.04358	263
Qarghah’ī	34.55402	70.24292	659
Qarchī Gak	37.03999	66.78891	306
Qarāwul	37.21959	68.7802	337
Qarah Bāgh	34.94023	61.77589	952
Qarah Bāgh	33.19801	68.10798	2089
Qala i Naw	34.98735	63.12891	887
Qal‘ah-ye Kūf	38.04119	70.47298	1383
Qal‘ah-ye Kuhnah	32.61591	63.66681	1429
Qal‘ah-ye Shahr	35.54729	65.5676	2136
Qalāt	32.10575	66.90833	1568
Qal‘ah-ye Shāhī	34.64921	70.5914	894
Qādis	34.8085	63.43003	1300
Pārūn	35.42064	70.92261	2756
Pul-e Khumrī	35.94458	68.71512	638
Pul-e ‘Alam	33.99529	69.02274	1921
Pasnay	35.76664	65.76486	1759
Pāshmūl	31.5572	65.4343	946
Pasāband	33.68956	64.8531	2468
Panjāb	34.38795	67.02327	2728
Paghmān	34.58787	68.95091	2328
Ōmnah	32.90029	68.79627	2595
Qaryeh-ye Owbeh	34.36972	63.17639	1287
Uruzgān	32.92775	66.63253	2026
Urgun	32.9515	69.1828	2208
Nūsay	38.4435	70.80413	1260
Nūrgal	34.61341	70.76498	679
Now Zād	32.40315	64.46959	1220
Nīlī	33.72178	66.13023	2069
Nayak	34.73414	66.95292	2554
Nāyak	32.5723	66.77403	2116
Now Dahānak	35.62398	70.00511	2629
Ōkak	33.89793	67.95652	3068
Nāṟay	35.21995	71.52284	1098
Narang	34.76009	71.04738	779
Nīkêh	33.18934	69.27179	2488
Nahrīn	36.0649	69.13343	1138
Ḩukūmat-e Nād ‘Alī	31.64286	64.23982	797
Mūsá Qal‘ah	32.44565	64.74486	1053
Bala Murghab	35.58408	63.32886	466
Muqêr	32.82009	67.76934	2000
Muḩammad Āghah Wuluswālī	34.21422	69.10026	1853
Mīzān ‘Alāqahdārī	32.17635	66.51271	1409
Mīr Bachah Kōṯ	34.74999	69.11899	1673
Mīrān	34.22037	68.31259	2457
Mīrābād	30.43624	61.8383	514
Maymana	35.92139	64.78361	864
Maīdān Khūlah	33.64916	69.7812	2026
Mingajik	37.0279	66.12817	280
Mehtar Lām	34.67139	70.20944	795
Mazār-e Sharīf	36.70904	67.11087	361
Māymay	38.40856	71.03839	1636
Mutā Khān	33.24001	68.8663	2124
Mashhad	36.81665	70.10211	977
Mardīān	36.99252	66.29654	287
Mandōl	35.28403	70.17017	2003
Māmā Khēl	34.24494	69.9968	1531
Lashkar Gāh	31.59382	64.37161	786
Lāsh-e Juwayn	31.71382	61.62272	513
Larkird	35.48936	66.66409	1508
La‘l	34.50141	66.27997	2797
Kushk	33.29565	61.95221	1115
Kōṯowāl	34.10319	70.46073	1464
Kushk-e Kuhnah	34.8711	62.54762	1076
Kuran wa Munjan	36.02866	70.77258	2550
Kunduz	36.72895	68.857	402
Khōshī	33.99916	69.21582	2252
Khōshāmand	32.68567	68.23801	2011
Khwājah Ghār	37.06588	69.42126	512
Khwājah Dū Kōh	36.82881	65.62432	307
Deh Khwāhān	37.88965	70.21875	1047
Khulbisāt	33.4948	70.00605	1148
Khūgyāṉī	31.56267	66.5814	1311
Khōst	33.33951	69.92041	1183
Khulm	36.69736	67.69826	445
Khudāydād Khēl	35.17835	67.68758	2030
Khinjān	35.58908	68.90093	1132
Khinj	35.42898	69.73482	2225
Khāsh	31.52919	62.79055	579
Khān Neshīn	30.5488	63.7888	635
Khānaqāh	36.62587	69.53695	1378
Chahār Bāgh	37.00108	65.22392	284
Khandūd	36.95127	72.318	2807
Khānaqāh	36.86279	66.16656	299
Khanabad	36.6825	69.11556	503
Khamyāb	37.5275	65.75833	254
Khākirān	32.8385	67.07377	2673
Kaz̲h̲ah	34.24088	70.18274	1276
Kishk-e Nakhūd	31.62519	65.05511	944
Karukh	34.48108	62.5863	1340
Kanḏay	34.9536	70.77897	1222
Kandahār	31.61332	65.71013	1007
Kalān Deh	33.83676	68.40233	2502
Kalakān	34.78371	69.15001	1593
Kalafgān	36.77226	69.94489	1590
Kajrān	33.20357	65.47311	1364
Kai	34.12819	70.71828	945
Kabul	34.52813	69.17233	1798
Jurm	36.86477	70.83421	1564
Jawand	35.06361	64.14917	945
Jānī Khēl	32.76315	68.39722	2048
Jalrēz	34.4708	68.65438	2347
Jalālābād	34.42647	70.45153	575
Jabal os Saraj	35.11833	69.23778	1612
Ḩukūmat-e Shīnkaī	31.98303	67.33558	1936
Herāt	34.34817	62.19967	927
Ḩājī Khēl	35.10922	69.43341	1914
Ḩāfiz̧ Moghul	37.05643	70.40061	1700
Khafizan	34.28665	70.37247	909
Guz̄arah	34.21223	62.21235	983
Gōshtah	34.35822	70.76264	483
Gōmal Kêlay	32.50989	68.85598	1827
‘Alāqahdārī Gēlān	32.72692	67.63696	1987
Ghōriyān	34.3448	61.49321	796
Ghormach	35.73062	63.78264	659
Ghurayd Gharamē	36.5222	70.79063	1884
Ghazni	33.55391	68.42096	2179
Gereshk	31.82089	64.57005	830
Gardez	33.59744	69.22592	2308
Fayzabad	37.11664	70.58002	1210
Faīẕābād	36.82091	66.45921	312
Fayẕābād	36.29111	64.86222	495
Qal‘ah-ye Fārsī	33.78529	63.24735	2286
Farkhār	36.57288	69.85783	1153
Farah	32.37451	62.11638	662
Istālif	34.83268	69.07756	1891
Kafir Qala	34.66667	61.06667	726
Injīl	34.30157	62.2465	937
Imām Şāḩib	37.18897	68.93644	358
Dōshī	35.60918	68.68473	836
Dowlatyār	34.55132	65.79302	2456
Dowlat Shāh	34.9504	70.07102	1551
Dowlatābād	36.98821	66.82069	312
Dowlatābād	36.43259	64.92071	413
Dū Qal‘ah	32.14237	61.4469	557
Dūāb	35.56277	67.82191	2238
Dê Nārkhēl Kêlay	32.43205	65.63484	1478
Dehī	35.95806	67.27998	1271
Deh-e Şalāḩ	35.69031	69.31511	1632
Deh-e Now	34.74767	69.04784	1974
Dehdādī	36.66319	66.99339	398
Dwah Manḏay	33.28159	69.58531	1543
Dasht-e Qal‘ah	37.1539	69.4435	449
Dasht-e Qal‘ah	33.02978	63.8395	1718
Dasht-e Archī	37.13333	69.16667	379
Darzāb	35.97744	65.37828	1179
Markaz-e Ḩukūmat-e Darwēshān	31.13231	64.1934	714
Darqad	37.38414	69.45294	435
Darāyim	36.86667	70.38333	1693
Dāngām	34.99249	71.41935	1250
Ḏanḏar	34.79095	69.47504	1724
Ḩukūmatī Dahanah-ye Ghōrī	35.90617	68.48869	801
Tsowkêy	34.69246	70.92688	725
Chīras	35.41674	65.98234	2691
Chisht-e Sharīf	34.34731	63.73966	1572
Chinār	32.01583	65.10721	1132
Chimtāl	36.67818	66.80325	355
Charkh	33.79712	68.93749	2081
Charikar	35.01361	69.17139	1554
Dowr-e Rabāţ	36.69132	68.79093	390
Tsapêraī	33.83003	69.9192	1679
Tsamkanī	33.80298	69.81671	1716
Chakaray	34.34099	69.4377	2372
Chākarān	36.91112	71.0688	1759
Chahār Qal‘ah	33.55267	68.29828	2376
Chahār Burj	34.24475	62.19165	943
Chāh Āb	37.39773	69.81464	1034
Fayrōz Kōh	34.51952	65.25093	2263
Bulōlah	34.87706	68.0879	2430
Bal Chirāgh	35.84026	65.2309	1163
Bāzār-e Tālah	35.39205	68.22317	1206
Bāsawul	34.24749	70.87218	464
Būrkah	36.22242	69.15037	1188
Barg-e Matāl	35.67283	71.34339	2077
Baraki Barak	33.96744	68.9492	1940
Banū	35.63348	69.26019	1510
Bāmyān	34.82156	67.82734	2550
Balkh	36.75635	66.8972	348
Bahārak	37.00254	70.90664	1552
Bagrāmī	34.49376	69.27427	1788
Baghlān	36.13068	68.70829	531
Ḩukūmatī Azrah	34.17355	69.64573	2330
Ārt Khwājah	37.08571	69.47958	481
‘Alāqahdārī Aṯghar	31.73506	67.3574	1827
Āsmār	35.03333	71.35809	913
Ashkāsham	36.68333	71.53333	3057
Asadābād	34.87311	71.14697	837
Āqchah	36.905	66.18341	293
Andkhōy	36.95293	65.12376	306
’Unābah	35.23251	69.37719	1770
Anār Darah	32.7587	61.65397	778
Amānzī	30.21144	66.04765	993
‘Alāqahdārī-ye Almār	35.84616	64.53074	840
‘Alī Shēr ‘Alāqahdārī	33.4362	70.06711	1082
Wuluswālī ‘Alīngār	34.83529	70.3593	937
‘Alī Khēl	33.94253	69.71908	2144
‘Alāqahdārī Yōsuf Khēl	33.05195	68.65	2239
‘Alāqahdārī Dīshū	30.43206	63.29802	596
Alah Sāy	34.8965	69.72049	1602
Pachīr wa Āgām	34.20011	70.27806	1241
Afaki	36.66172	69.35095	711
Adraskan	33.64573	62.26959	1352
Āb-e Kamarī	35.08796	63.0678	760
Khadīr	33.92232	65.93398	2462
Ghulām ‘Alī	34.95076	69.2287	1489
Qarah Bāgh Bāzār	34.8529	69.17062	1531
Zargarān	34.78764	69.05878	1935
Surkh Bilandī	34.68474	69.02863	2040
Pul-e Sangī	34.59972	69.25993	1776
Langar	35.99474	68.05081	1440
Bāgh-e Maīdān	35.22156	69.21397	1988
Ibrāhīm Khān	35.05352	69.25654	1491
Qaranghū Tōghaī	37.21528	67.63972	301
Bāzārak	35.31292	69.51519	1965
Shērwānī-ye Bālā	35.01468	69.59934	1786
Kirāmān	35.2973	69.68125	2527
‘Alāqahdārī Saṟōbī	32.79331	69.0866	2400
Zerok-Alakadari	33.15806	69.31278	2336
Kushkak	32.28991	61.52194	612
Khayr Kōṯ	32.85355	68.44971	2126
Chowṉêy	33.38278	66.27233	1347
Wuṯahpūr	34.91914	71.09863	872
Karbori	34.96597	71.2746	884
Sulţānpūr-e ‘Ulyā	34.41204	70.29634	696
Babasakhib	31.66144	65.66098	1014
Chandal Bā’ī	34.58469	68.95524	2304
Dahan-e Jarf	34.92891	68.46273	2306
Maydanshakhr	34.39561	68.86618	2206
Dū Laīnah	34.15599	64.78566	2619
Qaram Qōl	36.83006	65.04299	334
Pul-e Ḩişār	35.61794	69.47134	1979
Lab-Sar	36.02634	66.83799	1011
Ţāqchah Khānah	36.61922	69.62805	1071
March	37.52845	70.4482	1607
Zīrakī	37.59233	70.55814	2475
Aliabad	36.52115	68.89985	426
Pas Pul	37.47355	70.61617	2143
Qal‘ah-ye Na‘īm	34.39951	69.16705	1819
Markaz-e Woluswalī-ye Āchīn	34.12583	70.70778	972
Manogay	34.99015	70.91302	1042
Stêr Giyān	32.97704	69.37308	2132
Sharan	33.17568	68.73045	2145
Salām Khēl	33.67067	69.32983	2417
Saint John’s	17.12096	-61.84329	12
Potters Village	17.11337	-61.81962	1
Piggotts	17.11667	-61.8	11
Parham	17.09682	-61.77046	18
Liberta	17.04141	-61.79052	1
Falmouth	17.02741	-61.78136	25
Codrington	17.63333	-61.83333	6
Bolands	17.06565	-61.87466	9
All Saints	17.06671	-61.79303	60
West End Village	18.17191	-63.14941	23
The Valley	18.21704	-63.05783	19
The Quarter	18.20799	-63.04178	40
Farrington	18.215	-63.02238	19
Stoney Ground	18.22026	-63.04607	26
South Hill Village	18.19201	-63.08779	40
Sandy Ground Village	18.20118	-63.08998	4
North Side	18.22919	-63.04401	37
North Hill Village	18.20542	-63.07847	36
Island Harbour	18.25601	-63.0102	11
George Hill	18.19939	-63.0665	30
East End Village	18.23333	-63	6
Blowing Point Village	18.17648	-63.09375	10
Sandy Hill	18.22104	-63.01329	18
Xarrë	39.72833	20.05444	8
Sarandë	39.87534	20.00477	170
Mesopotam	39.91028	20.09222	47
Markat	39.73278	20.19528	472
Livadhja	39.78917	20.12194	35
Konispol	39.65889	20.18139	382
Kakavijë	39.90778	20.35833	341
Finiq	39.90639	20.05833	37
Dhivër	39.83611	20.16861	382
Delvinë	39.95111	20.09778	200
Aliko	39.85861	20.07917	33
Buçimas	40.89139	20.68139	703
Zhepë	40.67778	20.28694	801
Zerqan	41.50222	20.36056	725
Zavalinë	40.98083	20.28083	844
Zapod	42.05056	20.5525	1198
Zall-Reç	41.87611	20.32	488
Zall-Dardhë	41.80667	20.33611	397
Xibër-Murrizë	41.45472	20.02556	842
Vreshtas	40.79694	20.77694	818
Voskopojë	40.63306	20.58889	1199
Voskop	40.61194	20.69028	893
Vithkuq	40.525	20.5825	1253
Vithkuq	40.20472	20.25944	675
Vërtop	40.62889	20.05389	167
Vergo	40.00667	20.00889	234
Vendresha e Vogël	40.50722	20.13472	679
Velçan	40.95472	20.46222	1023
Ujmisht	41.90833	20.34694	594
Udënisht	40.96333	20.63917	743
Tunjë	40.83417	20.11194	597
Tregan	41.02472	20.07833	259
Trebisht-Muçinë	41.41111	20.53556	790
Trebinjë	40.91333	20.55306	898
Topojan	40.37722	20.21333	648
Tomin	41.69083	20.42167	686
Tepelenë	40.29583	20.01917	212
Surroj	41.99222	20.34417	595
Sult	40.88472	20.09944	439
Sukë	40.37528	20.15472	259
Suç	41.57694	20.05139	281
Stravaj	41.00528	20.42306	729
Steblevë	41.33722	20.47	1148
Sllovë	41.80111	20.40833	914
Skore	40.10722	20.36639	790
Skënderbegas	40.77611	20.24056	521
Shushicë	41.0975	20.14833	199
Shupenzë	41.53	20.42361	499
Shtiqën	42.04056	20.43417	364
Shishtavec	41.98	20.60583	1352
Shirgjan	41.05194	20.05333	124
Shëngjin	41.92611	20.18833	916
Shënmëri	42.10417	20.23833	409
Selishtë	41.6275	20.27917	743
Saraqinishtë	40.10528	20.22944	708
Rukaj	41.68361	20.01917	332
Rajcë	41.09028	20.57639	694
Roshnik	40.73278	20.03944	361
Qukës-Skënderbe	41.08389	20.43806	556
Qestorat	40.1175	20.19972	553
Qafëmal	42.09333	20.09056	754
Përrenjas-Fshat	41.06667	20.53528	586
Përrenjas	41.07306	20.54889	591
Proptisht	40.98611	20.5025	600
Progër	40.69417	20.94028	842
Potom	40.48833	20.37333	980
Poroçan	40.94194	20.29861	770
Polis-Gostimë	41.13333	20.25833	574
Poliçan	40.61222	20.09806	328
Pojan	40.72583	20.8375	823
Pogradec	40.9025	20.6525	702
Pishaj	40.88111	20.18278	193
Pirg	40.785	20.70611	871
Gjinkar	40.19944	20.40611	311
Petran	40.20944	20.41833	271
Peshkopi	41.685	20.42889	660
Përmet	40.23361	20.35167	244
Ostreni i Math	41.43083	20.45556	927
Orosh	41.83333	20.08333	746
Orenjë	41.28472	20.21194	802
Odrie	40.13333	20.16667	286
Novoselë	40.76139	20.69833	936
Picar	40.16667	20.04833	295
Mollas	40.92694	20.00361	110
Mollas	40.42556	20.67444	969
Mollaj	40.56028	20.74028	893
Miras	40.50917	20.92833	967
Melan	41.65417	20.46528	812
Mborje	40.60333	20.80306	977
Martanesh	41.4	20.2	905
Maqellarë	41.58889	20.48306	617
Maliq	40.70583	20.69972	844
Macukull	41.68861	20.11028	1062
Lunik	41.28917	20.32361	668
Llugaj	42.34139	20.10861	245
Lis	41.6275	20.08528	491
Liqenas	40.78667	20.90222	861
Librazhd	41.17944	20.315	251
Libonik	40.70444	20.70861	832
Libohovë	40.03111	20.26306	406
Leskovik	40.15139	20.59722	909
Leshnjë	40.53694	20.31333	1098
Lenias	40.76667	20.39139	986
Lekas	40.60222	20.5125	1010
Lazarat	40.04667	20.1475	457
Labinot-Mal	41.20083	20.15222	823
Labinot-Fushë	41.14056	20.14611	165
Kushovë	40.78889	20.18889	306
Kurbnesh	41.77972	20.08361	745
Kukur	40.86778	20.36361	797
Kukës	42.07694	20.42194	351
Kthella e Epërme	41.81194	20.05889	600
Krumë	42.19694	20.41333	462
Korçë	40.61861	20.78083	869
Kolsh	42.07806	20.34194	499
Kodovjat	40.80556	20.25111	276
Klos	41.50694	20.08667	257
Klos	40.94611	20.00972	109
Këlcyrë	40.31306	20.18944	178
Kastriot	41.72944	20.37722	562
Kardhiq	40.12167	20.0275	491
Kalis	41.83889	20.36667	762
Iballë	42.1875	20.0025	765
Hotolisht	41.15667	20.39722	656
Hoçisht	40.60833	20.91417	919
Gramsh	40.86972	20.18444	200
Gostimë	41.14556	20.24	309
Golaj	42.2475	20.38028	496
Gjorica e Sipërme	41.53444	20.45	462
Gjirokastër	40.07583	20.13889	286
Gjinar	41.0225	20.18889	764
Gjinaj	42.11806	20.43583	705
Gjergjan	41.04306	20.02972	134
Gjegjan	41.93778	20.01111	369
Fushë-Muhurr	41.67972	20.33139	411
Fushë-Lurë	41.80611	20.23194	1065
Fushë-Çidhnë	41.76056	20.34111	401
Fushë-Bulqizë	41.52194	20.28222	678
Fushë-Arrëz	42.06222	20.01667	533
Frashër	40.36889	20.42444	1013
Fierzë	42.26056	20.01694	303
Fajzë	42.16694	20.35083	428
Ersekë	40.33778	20.67889	1021
Elbasan	41.1125	20.08222	128
Drenovë	40.58333	20.79222	954
Dishnicë	40.65139	20.81361	877
Derjan	41.67361	20.05833	477
Gjerbës	40.62917	20.25111	821
Çorovodë	40.50417	20.22722	320
Çlirim	40.4175	20.55028	1148
Cerava	40.85139	20.725	805
Çepan	40.42056	20.26056	817
Çarshovë	40.11806	20.54083	328
Kokaj	41.87833	20.50472	1278
Buz	40.445	20.00472	747
Bushtricë	41.87861	20.42194	841
Burrel	41.61028	20.00889	315
Bulqizë	41.49167	20.22194	775
Bujan	42.32639	20.07639	224
Bradashesh	41.105	20.0225	112
Blinisht	41.86139	20	342
Blerim	42.16056	20.19194	608
Bilisht	40.6275	20.99	926
Bicaj	41.99472	20.4125	464
Dardhas	40.84583	20.65722	967
Barmash	40.27778	20.61833	879
Ballaban	40.41667	20.13444	322
Arrën	41.91306	20.28833	1054
Arras	41.73583	20.32417	417
Bytyç	42.31	20.20278	557
Librazhd-Qendër	41.19694	20.33556	554
Funarë	41.19639	20.05972	729
Moglicë	40.71806	20.43806	1112
Bogovë	40.57111	20.15	197
Piskovë	40.27917	20.2725	202
Lukovë	39.99222	19.91389	229
Ksamil	39.76889	19.99972	16
Zharrëz	40.70917	19.64972	34
Zejmen	41.70778	19.68917	8
Zall-Herr	41.38944	19.8275	132
Zall-Bastar	41.42972	19.93028	376
Xhafzotaj	41.34444	19.5475	19
Vukatanë	42.02806	19.54778	11
Vranisht	40.20972	19.69083	327
Vorë	41.39083	19.655	82
Vlorë	40.4686	19.48318	17
Velipojë	41.87833	19.40556	1
Velabisht	40.70167	19.93222	60
Vaqarr	41.29917	19.74417	106
Ura Vajgurore	40.76889	19.87778	33
Ungrej	41.87528	19.79472	253
Ulëz	41.68278	19.89333	162
Topojë	40.76306	19.43278	3
Tirana	41.3275	19.81889	113
Thumanë	41.5475	19.67778	14
Tërbuf	41.04	19.61417	7
Synej	41.18	19.5425	13
Sukth	41.38056	19.53778	13
Strum	40.75111	19.7375	35
Sinjë	40.64806	19.86806	757
Sinaballaj	41.06889	19.69944	54
Shkodër	42.06828	19.51258	12
Shijak	41.34556	19.56722	34
Shezë	41.02417	19.81611	46
Shënkoll	41.69083	19.65333	6
Shëngjin	41.81361	19.59389	1
Shëngjergj	41.18333	19.53333	7
Shalës	40.99861	19.94778	122
Nicaj-Shalë	42.29944	19.805	633
Sevaster	40.39639	19.72972	339
Selitë	41.63528	19.755	637
Valbonë	42.45139	19.89167	932
Selenicë	40.53056	19.63583	73
Ruzhdie	40.67083	19.69833	268
Rubik	41.77444	19.78611	79
Rrogozhinë	41.07639	19.66528	22
Rrëshen	41.7675	19.87556	94
Rrashbull	41.32278	19.51028	31
Rrasa e Sipërme	40.96778	19.82111	153
Rrapë	42.04444	19.97056	792
Roskovec	40.7375	19.70222	18
Remas	40.88639	19.51139	1
Qerret	42.05306	19.83722	652
Qelëz	42.08972	19.895	234
Pukë	42.04444	19.89972	799
Progonat	40.21333	19.94472	926
Prezë	41.42722	19.67278	230
Poshnje	40.78028	19.84417	31
Portëz	40.69917	19.57444	58
Peza e Madhe	41.2175	19.69611	116
Petrelë	41.25306	19.85306	298
Përparim	41.05	19.79917	88
Perondi	40.77889	19.92306	41
Peqin	41.04611	19.75111	52
Patos Fshat	40.64278	19.65083	157
Patos	40.68333	19.61944	61
Paskuqan	41.35389	19.80667	101
Papër	41.05167	19.96083	85
Pajovë	41.05472	19.8375	63
Otllak	40.74389	19.93528	42
Orikum	40.32528	19.47139	7
Novoselë	40.625	19.46694	6
Nikël	41.44417	19.74833	59
Nicaj-Shosh	42.24444	19.75806	776
Ngraçan	40.64444	19.7925	428
Ndroq	41.26389	19.65583	65
Milot	41.68389	19.71556	23
Memaliaj	40.35167	19.98028	115
Mbrostar-Urë	40.75361	19.57944	33
Manzë	41.42861	19.59306	49
Mamurras	41.5775	19.69222	25
Maminas	41.37917	19.6075	44
Luzi i Vogël	41.1275	19.57389	15
Lushnjë	40.94194	19.705	22
Luftinjë	40.44278	19.95444	432
Libofshë	40.83444	19.55222	7
Lezhë	41.78361	19.64361	7
Levan	40.67611	19.48972	12
Lekbibaj	42.29472	19.93167	318
Lekaj	41.11444	19.60972	34
Laç	41.63556	19.71306	33
Kutë	40.47333	19.76639	141
Kutalli	40.78389	19.78667	23
Kurjan	40.7175	19.74556	116
Kuman	40.72667	19.68667	20
Kuçovë	40.80028	19.91667	58
Kuç	42.03972	19.52528	9
Kryevidh	41.10056	19.5275	119
Krutja e Poshtme	40.87194	19.68083	10
Krujë	41.50917	19.79278	509
Krrabë	41.21556	19.97139	416
Krahës	40.43861	19.84444	209
Kozarë	40.83083	19.90056	28
Kotë	40.38944	19.60222	82
Koplik	42.21361	19.43639	63
Kombësi	41.58167	19.98556	317
Kolonjë	40.82417	19.60389	33
Kolç	41.78667	19.67611	35
Kavajë	41.18556	19.55694	19
Katundi i Ri	41.40306	19.51806	7
Kastrat	42.3525	19.48917	752
Kashar	41.34972	19.71028	202
Karinë	41.06306	19.71611	31
Karbunara e Vogël	40.92194	19.71778	20
Kamëz	41.38167	19.76028	55
Kallmeti i Madh	41.84889	19.68694	61
Kallmet	41.41806	19.82139	132
Kalenjë	40.59	19.77833	508
Kajan	40.91417	19.88944	173
Kaçinar	41.89333	19.89861	430
Ishëm	41.54528	19.6	27
Hysgjokaj	40.97167	19.78972	142
Hot	42.36194	19.44417	91
Himarë	40.10167	19.74472	3
Helmas	41.18028	19.60694	97
Hekal	40.56194	19.73583	336
Hasan	41.48278	19.69972	18
Hajmel	41.95306	19.63778	46
Gurra e Vogël	41.53611	19.99083	512
Guri i Zi	42.045	19.57472	30
Gruemirë	42.15917	19.51889	85
Greshicë	40.55194	19.77833	326
Grekan	40.92944	19.9475	158
Gradishtë	40.88806	19.58583	8
Gracen	41.15194	19.96361	763
Grabjan	40.95306	19.58083	26
Gosë e Madhe	41.09056	19.62472	44
Golem	40.96778	19.68528	32
Gjoçaj	41.02556	19.72389	33
Gjepalaj	41.33306	19.57806	69
Fushëkuqe	41.65028	19.62	-2
Fushë-Krujë	41.47833	19.71778	24
Fratar	40.5	19.81667	288
Frakulla e Madhe	40.65583	19.5025	19
Fier-Shegan	40.86722	19.78528	19
Fier-Çifçi	40.71667	19.56667	17
Fier	40.72389	19.55611	20
Farka e Madhe	41.30556	19.86694	214
Durrës	41.32355	19.45469	6
Drenovë	40.60056	19.70083	514
Divjakë	40.99667	19.52944	-1
Dërmënas	40.74556	19.49389	4
Vau i Dejës	42.01	19.62472	30
Dajt	41.39361	19.91583	654
Dajç	41.99167	19.41056	8
Dajç	41.91556	19.60444	18
Cukalat	40.73028	19.79056	153
Cudhi Zall	41.50944	19.84583	746
Cërrik	41.03167	19.97583	77
Cakran	40.60333	19.62611	86
Bushat	42.11944	19.89972	423
Bubullimë	40.81806	19.64083	8
Bubq	41.47417	19.65167	28
Brataj	40.26778	19.66917	257
Bërzhitë	41.24528	19.90111	216
Bërxull	41.38	19.6875	133
Bërdica e Madhe	42.01528	19.48167	11
Berat	40.70583	19.95222	66
Belsh	40.975	19.88194	217
Baz	41.63194	19.92917	319
Banaj	40.82492	19.84074	17
Ballsh	40.59889	19.73472	206
Ballagat	40.99528	19.76528	179
Baldushk	41.21389	19.79694	194
Armen	40.53639	19.59611	53
Aranitas	40.59444	19.80667	297
Allkaj	40.8575	19.75528	15
Golem	41.24583	19.53472	13
Balldreni i Ri	41.81917	19.64028	22
Grudë-Fushë	42.16222	19.49667	66
Fierzë	40.92056	19.84694	178
Dushk	40.72667	19.75722	50
Selitë	40.5475	19.84806	533
Vllahinë	40.45694	19.64361	121
Bajram Curri	42.35734	20.07679	351
Zarrit’ap’	39.63892	45.51111	1512
Zangakatun	39.82233	45.04169	1679
Goravan	39.90832	44.73328	922
Yeghegnavan	39.83893	44.61951	816
Yeghegnadzor	39.76389	45.33239	1242
Vostan	39.96515	44.55937	837
Vosketap’	39.88114	44.64917	841
Vernashen	39.79236	45.36389	1543
Verishen	39.53543	46.32063	1621
Vedi	39.91388	44.7251	914
Vayk’	39.6889	45.46668	1237
Tegh	39.55826	46.48054	1318
Surenavan	39.79449	44.77508	821
Sisavan	39.90802	44.66721	865
Shinuhayr	39.4367	46.31787	1500
Lusarrat	39.87403	44.58678	821
Shahumyan	39.94171	44.57233	832
Shatin	39.83612	45.30292	1276
Shaghat	39.55698	45.90727	1790
Rrind	39.76111	45.17792	1316
Noyakert	39.83069	44.66949	827
Mrgavan	39.97251	44.53565	840
Meghri	38.90292	46.24458	657
Malishka	39.74731	45.4057	1260
Khndzoresk	39.50568	46.4361	1408
Kapan	39.20755	46.40576	774
Jermuk	39.84168	45.66949	2103
Goris	39.51111	46.34168	1351
Gladzor	39.7807	45.34729	1378
Getap’	39.76392	45.30829	1118
Dzorastan	39.27059	46.3572	1206
Dalar	39.97653	44.52649	839
Burastan	39.99157	44.49681	839
Akner	39.53491	46.30732	1641
Brrnakot’	39.49742	45.97241	1698
Berk’anush	39.9779	44.51672	836
Aygezard	39.95436	44.60229	877
Aygepat	39.95845	44.59981	880
Aygavan	39.87327	44.66984	847
Avshar	39.85553	44.65832	832
Hats’avan	39.46405	45.97047	1761
Artashat	39.96144	44.54447	830
Yeghegis	39.87231	45.3501	1573
Armash	39.76672	44.8111	840
Areni	39.71668	45.18329	1081
Ararat	39.83069	44.70569	823
Angeghakot’	39.56952	45.94452	1822
Aghavnadzor	39.78607	45.2279	1553
Agarakadzor	39.73608	45.35553	1143
Agarak	39.20684	46.5446	998
Aralez	39.90008	44.6557	856
Horrom	40.65973	43.89032	1578
Margara	40.03332	44.18048	843
Zovuni	40.51111	44.4389	1856
Zovaber	40.56671	44.79028	1765
Zorak	40.09168	44.39447	835
Zarr	40.25848	44.73328	1622
Yerevan	40.18111	44.51361	994
Yerazgavors	40.69505	43.74722	1452
Yeraskhahun	40.07233	44.21948	843
Yeranos	40.20428	45.19209	1982
Yeghegnut	40.90302	44.63155	1096
Yeghegnut	40.08893	44.16669	847
Vagharshapat	40.16557	44.29462	877
Yeghvard	40.32507	44.48608	1343
Voskevaz	40.27508	44.30011	1042
Voskevan	41.12081	45.06381	946
Voskehask	40.76426	43.77474	1495
Verin Getashen	40.13068	45.25293	1980
Verin Dvin	40.02434	44.59038	955
Verin Artashat	39.99731	44.58893	893
Akht’ala	41.16838	44.75811	1214
Varser	40.55548	44.90832	1917
Vardenis	40.18329	45.73053	1939
Vardenik	40.13348	45.44311	1971
Vahan	40.57549	45.39769	1925
Vaghashen	40.13611	45.33069	1957
Vahagni	40.90698	44.60873	1076
Ushi	40.34729	44.37512	1394
Urrut	41.06778	44.39628	1459
Tsovinar	40.15959	45.46786	1926
Tsovazard	40.4751	45.05011	1944
Tsovak	40.18254	45.63286	1923
Tsovagyugh	40.63348	44.96112	2016
Tsaghkunk’	40.18048	44.27228	886
Tsaghkahovit	40.63428	44.22241	2108
Tsaghkaber	40.79849	44.10144	1762
Tsaghkadzor	40.53259	44.72025	1861
Tsovasar	40.1382	45.19096	2100
Tashir	41.12072	44.28462	1505
Tandzut	40.06952	44.07788	854
T’alin	40.39172	43.87793	1631
Step’anavan	41.00995	44.38531	1405
Spitak	40.83221	44.26731	1548
Spandaryan	40.66105	44.01551	1825
Alashkert	40.10712	44.05108	857
Solak	40.46252	44.70709	1658
Sis	40.05829	44.38892	829
Shnogh	41.14693	44.84043	640
Shirak	40.84042	43.91582	1634
Shenavan	40.48328	44.38348	1881
Shenavan	40.05548	43.93048	896
Sevan	40.5473	44.94171	1934
Sarukhan	40.29169	45.13068	1990
Sarigyugh	41.03531	45.14486	828
Saratak	40.6709	43.87231	1561
Saramej	40.77487	44.2222	1780
Sarahart’	40.87043	44.21407	1733
Geghakert	40.18516	44.24331	883
Ptghni	40.25568	44.58612	1336
Ptghunk’	40.16388	44.36389	868
P’shatavan	40.03888	44.06671	860
Prroshyan	40.24731	44.41949	1185
P’ok’r Mant’ash	40.64026	44.04666	1977
Zoravan	40.35553	44.52228	1469
Pemzashen	40.58612	43.94311	1803
Parravak’ar	40.98248	45.36696	768
Oshakan	40.26392	44.31671	1051
Sardarapat	40.13206	44.00969	862
Odzun	41.05321	44.61341	1107
Noyemberyan	41.17244	44.99917	842
Nor Gyugh	40.26672	44.65832	1432
Nor Geghi	40.32233	44.58331	1313
Norashen	41.18886	44.33336	1586
Norashen	40.0013	44.59296	906
Nor Armavir	40.08612	43.99451	888
Noramarg	40.02228	44.42511	829
Norakert	40.19733	44.3501	942
Noratus	40.37793	45.18048	1926
Nerk’in Getashen	40.14172	45.27087	1936
Navur	40.86695	45.34179	1482
Nalbandyan	40.0639	43.98889	870
Basen	40.75767	43.99274	1638
Hovtamej	40.18329	44.25848	885
Mrgashen	40.28607	44.54449	1335
Mrgashat	40.13068	44.08069	849
Mrganush	40.02857	44.55831	908
Mosesgegh	40.90534	45.48838	817
Mets Parni	40.83472	44.11108	1697
Mets Masrik	40.21948	45.76391	1943
Mets Mant’ash	40.64376	44.05653	1962
Metsavan	41.20156	44.22877	1576
Metsamor	40.07233	44.29169	840
Merdzavan	40.1814	44.40033	939
Meghrashen	40.6723	43.95831	1664
Meghradzor	40.60611	44.65147	1785
Mayakovski	40.25293	44.63892	1418
Masis	40.06542	44.41618	833
Martuni	40.13892	45.30548	1935
Marmarashen	40.05829	44.47229	847
Marmashen	40.83486	43.7779	1619
Margahovit	40.73381	44.68474	1752
Maralik	40.57507	43.87231	1713
Mayisyan	40.84715	43.83938	1642
Madina	40.07637	45.25507	2169
Lukashin	40.18726	44.0039	874
Lorut	40.93717	44.77142	1499
Lichk’	40.15933	45.23467	1930
Lerrnavan	40.7882	44.16024	1778
Lerrnapat	40.81538	44.39344	1524
Lerrnants’k’	40.79532	44.27435	1667
Lerrnanist	40.46676	44.79249	1922
Lerrnakert	40.5625	43.9389	1984
Khoronk’	40.13611	44.24731	858
Lchashen	40.51947	44.93048	1929
Lchap’	40.45569	45.07507	1931
Lanjaghbyur	40.26947	45.14447	2042
Kotayk’	40.27789	44.66388	1443
Kosh	40.30011	44.16107	1205
Vanadzor	40.80456	44.4939	1344
Hnaberd	40.63721	44.14058	2110
Khasht’arrak	40.93668	45.1821	816
Kasakh	40.53697	44.41046	1857
Karchaghbyur	40.17048	45.57785	1950
Karbi	40.33069	44.37793	1305
Karanlukh	40.10444	45.28972	2111
Kaputan	40.32507	44.70007	1765
K’anak’erravan	40.24739	44.53511	1252
Kamo	40.82572	43.95071	1642
Gavarr	40.35398	45.12386	1953
Mayisyan	40.15701	44.09192	874
Shahumyan	40.77482	44.54596	1520
Ijevan	40.87877	45.14851	677
Hrazdan	40.49748	44.7662	1762
Armavir	40.15446	44.03815	870
Hayanist	40.12231	44.37793	843
Haghartsin	40.77614	44.96847	1015
Gyumri	40.7942	43.84528	1549
Gyulagarak	40.96715	44.47144	1366
Ghukasavan	40.12793	44.41669	851
Geghamasar	40.31091	45.67924	2047
Gugark’	40.8046	44.54025	1320
Tsiatsan	40.1861	44.26947	886
Goght’	40.1347	44.78332	1578
Gogaran	40.89255	44.19915	1849
Getazat	40.03844	44.56369	939
Getashen	40.04449	43.94171	888
Geghanist	40.14587	44.43048	868
Geghamavan	40.5625	44.88892	1853
Garrni	40.11931	44.73442	1413
Gagarin	40.54026	44.86962	1891
Fantan	40.39447	44.6861	1801
Fioletovo	40.72241	44.71769	1686
Dzoraghbyur	40.20412	44.6415	1549
Dzoragyugh	40.16957	45.18337	2016
Dzit’hank’ov	40.50848	43.82092	1751
Jrashen	40.79028	44.18664	1676
Jrashen	40.05275	44.51259	941
Jrahovit	40.0473	44.4751	837
Janfida	40.04449	44.02789	866
Dvin	40.01984	44.58376	928
Dsegh	40.9617	44.65003	1216
Drakhtik	40.56497	45.2367	1983
Doghs	40.22229	44.27228	926
Dilijan	40.7417	44.8501	1315
Ddmashen	40.57028	44.82295	1798
Darpas	40.83674	44.42494	1377
Dalarik	40.2279	43.87793	1005
Chochkan	41.18118	44.83217	767
Chambarak	40.59655	45.35498	1848
Bjni	40.45831	44.65008	1490
Byureghavan	40.31417	44.59333	1385
Byurakan	40.33894	44.27275	1489
Buzhakan	40.45569	44.51947	1845
Berdavan	41.20503	44.99967	705
Berd	40.88135	45.38901	949
Bazum	40.86763	44.43978	1521
Byuravan	40.01604	44.51889	868
Bambakashat	40.10828	44.01947	865
Balahovit	40.25153	44.60828	1409
Bagratashen	41.24358	44.81737	440
Azatan	40.71959	43.82727	1498
Haykavan	40.80312	43.75173	1557
Aygestan	40.00293	44.55829	869
Aygeshat	40.23608	44.28888	942
Aygeshat	40.07507	44.0611	859
Aknalich	40.14728	44.16669	862
Aygehovit	40.97951	45.25033	697
Artimet	40.15008	44.26672	859
Astghadzor	40.12231	45.35553	2035
Ashtarak	40.2991	44.36204	1142
Ashnak	40.33069	43.91669	1429
Arzni	40.2973	44.59869	1349
Arzakan	40.45007	44.60828	1483
Arteni	40.2973	43.76672	1206
Arshaluys	40.16949	44.21393	868
Argel	40.37793	44.6001	1430
Argavand	40.15289	44.4389	881
Argavand	40.0611	44.09448	855
Arevshat	40.65345	44.04419	1913
Arevshat	40.03963	44.54179	931
Arevik	40.7417	43.9043	1532
Arevik	40.1001	44.09448	853
Arevashogh	40.86039	44.27438	1680
Arevashat	40.14447	44.37512	853
Archis	41.16351	44.87631	754
Arbat’	40.13892	44.40289	856
Arazap’	40.04169	44.14728	847
Arrap’i	40.78276	43.80583	1487
Aramus	40.25095	44.66351	1441
Arak’s	40.05548	44.30292	837
Aragats	40.48889	44.3529	1976
Aparan	40.59323	44.3589	1892
Apaga	40.09729	44.25293	843
Anushavan	40.65008	43.98053	1722
Amasia	40.95442	43.7872	1877
Alaverdi	41.09766	44.67316	699
Akunk’	40.26672	44.6861	1459
Akunk’	40.15886	45.72568	1961
Akhuryan	40.78003	43.90027	1544
Aghavnatun	40.2333	44.25295	931
Aghavnadzor	40.58195	44.69581	1771
Agarak	41.01072	44.46845	1375
Agarakavan	40.33069	44.07233	1445
Abovyan	40.27368	44.63348	1423
Abovyan	40.04851	44.54742	956
Vardablur	40.97083	44.50889	1318
Bardzrashen	40.08533	44.57957	1154
Nshavan	40.02787	44.52565	886
Norabats’	40.10553	44.43329	864
Shirakamut	40.86056	44.15278	1766
Azatamut	40.98204	45.18551	547
Artsvaberd	40.83947	45.47033	1285
Nor Yerznka	40.30011	44.38892	1193
Sasunik	40.25012	44.34448	1071
Gandzak	40.31472	45.11139	1989
Myasnikyan	40.18048	43.91949	906
Lenughi	40.12512	43.96393	887
Metsamor	40.14447	44.1167	861
Gay	40.08444	44.30528	840
Baghramyan	40.19452	44.36951	947
Musalerr	40.1557	44.37793	862
Darakert	40.10553	44.41388	844
Dashtavan	40.1001	44.39172	836
Nizami	40.09168	44.4057	838
Vardadzor	40.18701	45.19212	1997
Taronik	40.13367	44.19957	851
Aknashen	40.09551	44.28604	838
Haykashen	40.07233	44.30829	837
Hovtashat	40.09729	44.34448	836
Sayat’-Nova	40.07507	44.40008	833
Voskehat	40.14172	44.33069	857
Griboyedov	40.11307	44.27169	845
Gmbet’	40.22369	44.25409	917
Aygek	40.1889	44.38611	948
Hovtashen	40.02508	44.45007	826
Dimitrov	40.00848	44.4917	845
Mrgavet	40.02789	44.48328	842
Arevabuyr	40.03607	44.46948	834
Saurimo	-9.66078	20.39155	1071
Lucapa	-8.41915	20.74466	955
Lumeje	-11.55	20.78333	1144
Luau	-10.70727	22.22466	1106
Léua	-11.65	20.45	1236
Cazaji	-11.06715	20.70148	1188
Uíge	-7.60874	15.06131	825
Soio	-6.1349	12.36894	10
N'zeto	-7.23116	12.8666	19
N’dalatando	-9.29782	14.91162	795
Mbanza Kongo	-6.26703	14.2401	544
Malanje	-9.54015	16.34096	1134
Luanda	-8.83682	13.23432	73
Caxito	-8.57848	13.66425	20
Camabatela	-8.18812	15.37495	1237
Cabinda	-5.55	12.2	1
Uacu Cungo	-11.35669	15.11719	1304
Sumbe	-11.20605	13.84371	10
Quibala	-10.73366	14.97995	1284
Ondjiva	-17.06667	15.73333	1113
Namibe	-15.19611	12.15222	13
Menongue	-14.6585	17.69099	1355
Luena	-11.78333	19.91667	1337
Lubango	-14.91717	13.4925	1760
Longonjo	-12.90667	15.25333	1424
Lobito	-12.3644	13.53601	4
Cuito	-12.38333	16.93333	1715
Huambo	-12.77611	15.73917	1716
Chissamba	-12.16667	17.33333	1404
Catumbela	-12.43002	13.54677	12
Catabola	-12.15	17.28333	1531
Camacupa	-12.01667	17.48333	1473
Caconda	-13.73333	15.06667	1674
Caála	-12.8525	15.56056	1742
Benguela	-12.57626	13.40547	11
Chela	-12.30261	15.43358	1716
Chinjenje	-12.93244	14.99238	1895
McMurdo Station	-77.846	166.676	-9999
Zárate	-34.09814	-59.02858	28
Yataity Calle	-29.01913	-58.90846	72
Yapeyú	-29.46914	-56.81841	64
Wanda	-25.96879	-54.56285	206
Villa Paranacito	-33.71381	-58.65844	7
Villa Ortúzar	-34.57973	-58.46829	26
Villa Ocampo	-28.48752	-59.35515	54
Villa María Grande	-31.66565	-59.90182	94
Villa Mantero	-32.39727	-58.74596	46
Villa Lugano	-34.67907	-58.47263	19
Villa Hernandarias	-31.23097	-59.98464	52
Villaguay	-31.8653	-59.02689	50
Villa Gesell	-37.26394	-56.97304	9
Villa Escolar	-26.62209	-58.67134	69
Villa Elisa	-32.1632	-58.40082	57
Villa de Mayo	-34.5108	-58.68059	16
Villa del Rosario	-30.79567	-57.91257	69
Verónica	-35.38796	-57.33691	20
Veinticinco de Mayo	-27.37679	-54.74312	396
Urdinarrain	-32.68573	-58.89323	68
Ubajay	-31.79358	-58.3135	54
Tres Capones	-28.00641	-55.60471	157
Tortuguitas	-34.47513	-58.75367	20
Tigre	-34.42603	-58.57962	8
Tandil	-37.32167	-59.13316	192
Tacuarendí	-28.41265	-59.26	50
Tabossi	-31.80135	-59.93477	100
Suipacha	-34.7702	-59.68783	48
Sauce de Luna	-31.23794	-59.21872	76
Sauce	-30.08671	-58.78777	71
San Vicente	-35.0249	-58.42409	24
San Vicente	-26.61667	-54.13333	603
Santo Tomé	-28.54939	-56.04077	81
Santo Pipó	-27.14132	-55.40867	174
Santa Rosa	-28.26318	-58.11891	79
Santa María	-27.9349	-55.40742	137
Santa Lucía	-28.98746	-59.10287	54
Santa Elena	-30.94432	-59.78832	74
Santa Anita	-32.17476	-58.78622	67
Santa Ana	-30.90004	-57.93162	50
Santa Ana	-27.3674	-55.58091	164
San Salvador	-31.62487	-58.50524	75
San Roque	-28.57457	-58.70817	64
San Pedro	-33.67918	-59.66633	30
San Pedro	-26.62207	-54.10842	554
San Miguel del Monte	-35.43962	-58.80675	25
San Miguel	-27.99585	-57.58964	80
San Luis del Palmar	-27.5079	-58.55454	62
San Lorenzo	-28.13306	-58.76733	64
San Justo	-34.6766	-58.56058	35
San Justo	-32.44654	-58.43569	44
San José de Feliciano	-30.38452	-58.75167	68
San José	-27.76979	-55.7826	169
San Javier	-30.57781	-59.9317	27
San Javier	-27.87427	-55.13509	112
San Isidro	-34.4721	-58.52708	20
San Ignacio	-27.25586	-55.5339	161
San Gustavo	-30.68961	-59.3984	56
San Francisco de Laishí	-26.24262	-58.63039	73
San Cosme	-27.37123	-58.51214	72
San Clemente del Tuyú	-36.35694	-56.72351	6
San Cayetano	-38.34653	-59.60954	100
San Carlos	-27.74586	-55.89731	205
San Antonio de Areco	-34.2503	-59.47163	32
San Andrés de Giles	-34.44721	-59.44451	51
Saladillo	-35.63708	-59.77788	45
Saladas	-28.25384	-58.62591	75
Ruiz de Montoya	-26.98333	-55.05	178
Rosario del Tala	-32.30286	-59.14545	39
Roque Pérez	-35.39794	-59.33271	34
Riachuelo	-27.58191	-58.74497	57
Riacho Eh-Eh	-25.36209	-58.2775	78
Retiro	-34.58333	-58.38333	7
Resistencia	-27.46056	-58.98389	56
Reconquista	-29.15	-59.65	50
Rauch	-36.7745	-59.08973	95
Ranchos	-35.51601	-58.3188	23
Quilmes	-34.72904	-58.26374	18
Puerto Yeruá	-31.53713	-58.01527	26
Puerto Vilelas	-27.51414	-58.93906	52
Puerto Tirol	-27.37218	-59.08206	54
Puerto Rico	-26.79598	-55.02402	147
Puerto Piray	-26.46937	-54.70736	137
Puerto Libertad	-25.91958	-54.58229	101
Puerto Leoni	-26.98762	-55.16569	95
Puerto Iguazú	-25.59912	-54.57355	177
Puerto Ibicuy	-33.75305	-59.17762	4
Puerto Esperanza	-26.02267	-54.61356	152
Puerto Eldorado	-26.40843	-54.69463	102
Puerto Bermejo	-26.92739	-58.50917	54
Pueblo Libertador	-30.22087	-59.38981	38
Pronunciamiento	-32.3448	-58.44268	47
Presidencia Roca	-26.1409	-59.59541	91
Presidencia de la Plaza	-27.00147	-59.84243	76
Posadas	-27.36708	-55.89608	127
Pontevedra	-34.74785	-58.70072	24
Pirané	-25.73239	-59.10879	86
Pinamar	-37.10795	-56.8614	15
Pilar	-34.45866	-58.9142	27
Pila	-36.00058	-58.14391	17
Piedras Blancas	-31.18592	-59.95181	46
Picada Gobernador López	-27.67069	-55.24585	299
Perugorría	-29.34132	-58.61059	64
Pedro R. Fernández	-28.75097	-58.65583	73
Paso de los Libres	-29.71251	-57.08771	73
Paso de la Patria	-27.31676	-58.57197	56
Panambí	-27.72369	-54.91515	121
Pampa del Indio	-26.04982	-59.93728	96
Pampa Almirón	-26.70039	-59.12331	68
Palo Santo	-25.56332	-59.33781	90
Palmar Grande	-27.94195	-57.90057	75
Olivos	-34.50747	-58.48703	23
Oberá	-27.48706	-55.11994	345
Nueve de Julio	-28.84051	-58.8265	74
Nuestra Señora del Rosario de Caa Catí	-27.75072	-57.62073	77
Nogoyá	-32.39387	-59.78953	50
Necochea	-38.5545	-58.73961	19
Navarro	-35.00587	-59.27828	30
Muñiz	-34.55622	-58.70739	31
Morón	-34.6509	-58.61956	29
Monte Caseros	-30.25359	-57.63626	53
Montecarlo	-26.5662	-54.757	205
Mojón Grande	-27.71165	-55.15631	327
Mocoretá	-30.61891	-57.96344	52
Miramar	-38.27161	-57.8389	14
Merlo	-34.66627	-58.72927	21
Mercedes	-34.65145	-59.43068	43
Mercedes	-29.18416	-58.07519	96
Mburucuyá	-28.04532	-58.22835	79
Mártires	-27.42265	-55.37659	171
Mariano I. Loza	-29.37667	-58.19436	122
Margarita Belén	-27.2616	-58.97219	58
Mar del Tuyú	-36.57531	-56.68883	6
Mar del Plata	-38.00042	-57.5562	24
Marcos Paz	-34.78233	-58.83777	28
Malabrigo	-29.34636	-59.96957	59
Makallé	-27.20687	-59.28696	67
Maipú	-36.86274	-57.88094	16
Magdalena	-35.08065	-57.51301	11
Maciá	-32.1722	-59.39947	76
Luján	-34.57028	-59.105	27
Lucas González	-32.3843	-59.53013	94
Los Polvorines	-34.50316	-58.70596	28
Los Helechos	-27.55051	-55.07908	369
Los Conquistadores	-30.5908	-58.46773	75
Los Charrúas	-31.17548	-58.18774	72
Loreto	-27.76834	-57.27531	79
Loreto	-27.33177	-55.52499	173
Lomas de Zamora	-34.76088	-58.40632	23
Lomas de Vallejos	-27.73501	-57.9185	71
Lobos	-35.18537	-59.09788	29
Lobería	-38.15574	-58.7913	82
Libertad	-30.043	-57.8202	85
Leandro N. Alem	-27.60341	-55.32491	296
La Verde	-27.12634	-59.37352	67
Las Toscas	-28.3529	-59.25795	53
Las Garcitas	-26.61802	-59.80135	86
Las Flores	-36.01403	-59.09984	39
Larroque	-33.03595	-59.00125	54
La Plata	-34.92145	-57.95453	27
La Paz	-30.74179	-59.64517	53
Lapachito	-27.15997	-59.38605	66
Lanús	-34.70252	-58.3955	10
La Leonesa	-27.03786	-58.70347	60
Laguna Naick-Neck	-25.24769	-58.09383	78
Laguna Limpia	-26.49565	-59.68083	86
La Escondida	-27.10724	-59.44784	67
La Eduvigis	-26.83607	-59.06211	70
La Cruz	-29.17443	-56.64326	69
La Criolla	-31.26904	-58.10558	55
Juan Pujol	-30.41873	-57.85612	63
Jardín América	-27.04346	-55.22698	227
Ituzaingó	-34.65803	-58.66317	31
Ituzaingó	-27.58162	-56.68231	78
Itatí	-27.27043	-58.24458	65
Itá Ibaté	-27.42573	-57.33758	75
Ibarreta	-25.21438	-59.85851	107
Hurlingham	-34.5904	-58.62904	17
Herrera	-32.43401	-58.63177	51
Herradura	-26.48705	-58.31198	64
Herlitzka	-27.56516	-58.25557	66
Hasenkamp	-31.51226	-59.83545	90
Guaraní	-27.52323	-55.16077	359
Gualeguaychú	-33.00937	-58.51722	14
Gualeguay	-33.14156	-59.30966	14
Goya	-29.13995	-59.26343	25
Gobernador Roca	-27.18636	-55.46433	185
Gobernador Mansilla	-32.54453	-59.3548	50
Gobernador Juan E. Martínez	-28.91161	-58.93594	64
Gobernador Virasora	-28.05	-56.03333	133
General Vedia	-26.93382	-58.6604	58
General San Martín	-34.57424	-58.53496	26
General Rodríguez	-34.60838	-58.95253	34
General Pacheco	-34.45256	-58.64312	4
General Lavalle	-36.40633	-56.94329	3
General Las Heras	-34.92682	-58.94667	33
General Juan Madariaga	-36.99725	-57.13951	11
General José de San Martín	-26.53743	-59.34158	81
General Guido	-36.64074	-57.79174	14
General Galarza	-32.72034	-59.39615	54
General Conesa	-36.52013	-57.32537	4
General Campos	-31.52311	-58.4049	65
General Belgrano	-35.76952	-58.49341	22
General Alvear	-27.42611	-55.16916	290
Garupá	-27.48171	-55.82921	108
Garuhapé	-26.81768	-54.95665	177
Garruchos	-28.17208	-55.65406	80
Formosa	-26.18489	-58.17313	62
Fontana	-27.41813	-59.02392	54
Florentino Ameghino	-27.56667	-55.13333	252
Florencio Varela	-34.82722	-58.39556	28
Felipe Yofré	-29.10226	-58.33772	72
Federal	-30.95465	-58.78326	67
Federación	-31.00621	-57.89962	46
José María Ezeiza	-34.84787	-58.52869	20
Esquina	-30.01476	-59.5289	39
Espinillo	-24.98132	-58.5521	92
Ensenada	-34.86186	-57.91126	5
Empedrado	-27.95178	-58.80584	68
El Soberbio	-27.29847	-54.19877	156
Eldorado	-26.40484	-54.62478	233
El Colorado	-26.30808	-59.37291	86
El Alcázar	-26.71459	-54.81523	210
Dos de Mayo	-27.02277	-54.68669	561
Dos Arroyos	-27.69946	-55.25207	287
Don Torcuato	-34.49459	-58.62729	15
Domínguez	-31.9871	-58.96197	59
Dolores	-36.31321	-57.67918	14
Curuzú Cuatiá	-29.79171	-58.0546	79
Cruz de los Milagros	-28.83646	-59.00476	59
Coté-Lai	-27.5	-59.6	65
Corrientes	-27.46784	-58.8344	53
Coronel Vidal	-37.44604	-57.72865	26
Conscripto Bernardi	-31.04837	-59.08435	70
Concordia	-31.39296	-58.02089	30
Concepción del Uruguay	-32.48463	-58.23217	9
Concepción de la Sierra	-27.98311	-55.52031	167
Concepción	-28.39175	-57.88777	67
Comandante Fontana	-25.33453	-59.68212	103
Colonias Unidas	-26.69825	-59.63154	83
Colonia Elisa	-26.93041	-59.51861	72
Colonia Elía	-32.67144	-58.32538	35
Colonia Benítez	-27.33099	-58.94622	54
Colonia Aurora	-27.47428	-54.52498	178
Colón	-32.22312	-58.14426	27
Colegiales	-34.57365	-58.44924	27
Clorinda	-25.28481	-57.71851	66
Ciervo Petiso	-26.58041	-59.63094	88
Chavarría	-28.95489	-58.57277	64
Chascomús	-35.57297	-58.00809	15
Charadai	-27.65503	-59.86291	67
Chajarí	-30.75048	-57.97962	58
Cerro Corá	-27.5131	-55.60896	161
Cerro Azul	-27.6331	-55.4962	263
Ceibas	-33.43333	-58.75	7
Castelli	-36.08949	-57.80393	11
Caseros	-34.60333	-58.56409	35
Caseros	-32.46325	-58.47872	51
Carmen de Areco	-34.37743	-59.82395	49
Caraguatay	-26.60587	-54.78093	126
Capitán Solari	-26.80215	-59.56089	80
Capitán Sarmiento	-34.17238	-59.79048	51
Capioví	-26.92998	-55.06084	184
Capilla del Señor	-34.29207	-59.10179	24
Cañuelas	-35.05379	-58.76205	30
Candelaria	-27.4595	-55.74536	119
Campo Viera	-27.33271	-55.05651	342
Campo Ramón	-27.4549	-55.02122	364
Campo Grande	-27.2077	-54.97977	454
Campana	-34.16327	-58.95919	16
Buenos Aires	-34.61315	-58.37723	31
Brandsen	-35.16842	-58.23427	21
Bovril	-31.34311	-59.44512	81
Bonpland	-29.81708	-57.42974	75
Bonpland	-27.48218	-55.47756	187
Boedo	-34.63333	-58.41667	19
Berón de Astrada	-27.55067	-57.5346	79
Bernardo de Irigoyen	-26.2552	-53.64581	815
Berisso	-34.8735	-57.88303	5
Berazategui	-34.76531	-58.21278	20
Benito Juárez	-37.67188	-59.80653	219
Bella Vista	-28.50752	-59.04149	63
Belgrano	-34.5627	-58.45829	18
Belén de Escobar	-34.34833	-58.79265	26
Basail	-27.88539	-59.28245	57
Barranqueras	-27.48132	-58.93925	52
Barracas	-34.64966	-58.38341	10
Baradero	-33.81105	-59.50807	29
Balcarce	-37.84616	-58.25522	126
Azul	-36.77698	-59.85854	141
Azara	-28.0616	-55.67797	127
Ayacucho	-37.15185	-58.48691	81
Avellaneda	-29.11761	-59.65834	52
Arroyo del Medio	-27.69748	-55.40376	287
Aristóbulo del Valle	-27.09625	-54.89626	494
Apóstoles	-27.91421	-55.75355	179
Alvear	-29.09683	-56.55043	65
Almafuerte	-27.50825	-55.40258	328
Aldea San Antonio	-32.62317	-58.70512	39
Alba Posse	-27.56978	-54.68262	125
Guernica	-34.9162	-58.38111	27
Villa Basilio Nievas	-31.55	-68.73333	776
Zapala	-38.89916	-70.05442	1015
Yuto	-23.64342	-64.47194	355
Yerba Buena	-26.81667	-65.31667	515
Yacimiento Río Turbio	-51.57321	-72.3508	573
Winifreda	-36.22643	-64.23388	169
Wenceslao Escalante	-33.17303	-62.77078	119
Vista Alegre	-38.75	-68.18333	336
Vinchina	-28.75964	-68.20692	1460
Villa Valeria	-34.34093	-64.9203	297
Villa Urquiza	-31.64757	-60.37516	51
Villa Unión	-29.41347	-62.78822	87
Villa Unión	-29.31595	-68.22658	1154
Villa Tulumba	-30.39552	-64.12241	702
Villa Trinidad	-30.21329	-61.87597	95
Villa Santa Rosa	-31.74434	-68.31411	572
Villa Rumipal	-32.1879	-64.48027	546
Villa Regina	-39.1	-67.06667	201
Villa Reducción	-33.20105	-63.86234	265
Villa Paula de Sarmiento	-31.4933	-68.53838	646
Villa Ojo de Agua	-29.50003	-63.69377	531
Villa Nueva	-32.89722	-68.78038	719
Villa Nueva	-32.43293	-63.24763	204
Villa Mugueta	-33.31129	-61.05515	85
Villa Media Agua	-31.98267	-68.42394	553
Villa María	-32.40751	-63.24016	202
Villa Las Rosas	-31.95021	-65.05354	744
Villa La Angostura	-40.76173	-71.64631	796
Villa Krause	-31.56667	-68.53333	634
Villa Huidobro	-34.83826	-64.58686	219
Villa Giardino	-31.03333	-64.48333	1086
Villa General Roca	-32.66535	-66.45052	650
Villa General Mitre	-29.1431	-62.65248	90
Villa General Belgrano	-31.97828	-64.55627	742
Villa Dolores	-31.94585	-65.18958	523
Villa de Soto	-30.85523	-64.99947	538
Villa de María	-29.90195	-63.72289	347
Villa del Totoral	-30.81667	-63.71667	233
Villa del Salvador	-31.44155	-68.39745	602
Villa del Rosario	-31.5566	-63.53452	249
Villa del Dique	-32.17667	-64.45543	546
Villa Cura Brochero	-31.70578	-65.01796	909
Villa Constitución	-33.22778	-60.3297	32
Villa Concepción del Tío	-31.32259	-62.81354	125
Chañar Ladeado	-33.32524	-62.03831	116
Villa Castelli	-29.01447	-68.22339	1300
Villa Carlos Paz	-31.42414	-64.49778	666
Villa Cañás	-34.00565	-61.60757	104
Villa Bustos	-29.28636	-67.02067	989
Villa Berthet	-27.29174	-60.41263	83
Villa Atamisqui	-28.49609	-63.81609	124
Villa Ascasubi	-32.16351	-63.89157	337
Villa Ángela	-27.57383	-60.71526	79
Villa Allende	-31.29458	-64.29538	505
Villa Aberastain	-31.65	-68.58333	619
Viedma	-40.81345	-62.99668	8
Vicuña Mackenna	-33.91965	-64.39215	243
Victorica	-36.21505	-65.43586	314
Victoria	-32.61841	-60.15478	52
Viamonte	-33.74647	-63.09764	131
Viale	-31.86782	-60.00722	71
Vera	-29.4593	-60.21261	64
Venado Tuerto	-33.74556	-61.96885	117
28 de Noviembre	-51.5839	-72.21382	227
Veinticinco de Mayo	-37.7741	-67.71638	348
Veinticinco de Mayo	-35.4323	-60.17271	57
Vedia	-34.49558	-61.54138	94
Valle Hermoso	-31.11732	-64.48084	907
Valle Grande	-23.47604	-64.94822	1693
Valcheta	-40.67989	-66.16283	185
Ushuaia	-54.81084	-68.31591	52
Uriburu	-36.50682	-63.86225	144
Unquillo	-31.23073	-64.31615	633
Unión	-35.15282	-65.94602	378
Ulapes	-31.57362	-66.2365	411
Ucacha	-33.03203	-63.50666	197
Tupungato	-33.37146	-69.14845	1077
Tunuyán	-33.57653	-69.01538	883
Tumbaya	-23.85814	-65.46704	2205
Trevelin	-43.0858	-71.46386	380
Tres Lomas	-36.45722	-62.86047	116
Tres Isletas	-26.34067	-60.43207	102
Tres Arroyos	-38.37394	-60.27978	113
Tres Algarrobos	-35.19471	-62.77396	108
Trenque Lauquen	-35.97035	-62.73432	95
Trenel	-35.69837	-64.13218	179
Trelew	-43.24895	-65.30505	14
Trancas	-26.23136	-65.28093	780
Totoras	-32.5844	-61.16852	56
Tostado	-29.23202	-61.76917	77
Tornquist	-38.10122	-62.22267	294
Toledo	-31.55574	-64.00947	371
Toay	-36.67338	-64.3786	190
Tío Pujio	-32.2879	-63.35598	226
Tintina	-27.02687	-62.70643	166
Tinogasta	-28.06319	-67.56488	1212
Tilisarao	-32.73292	-65.29109	752
Tilcara	-23.57817	-65.39516	3180
Ticino	-32.6935	-63.43606	204
Termas de Río Hondo	-27.49362	-64.85972	260
Telsen	-42.43553	-66.94078	348
Telén	-36.26429	-65.51018	303
Tecka	-43.49489	-70.8102	717
Tartagal	-22.51637	-63.80131	499
Tapalqué	-36.35493	-60.0264	90
Tancacha	-32.24309	-63.9807	354
Tamberías	-31.45868	-69.422	1473
Tama	-30.50798	-66.5298	654
Tafí Viejo	-26.73201	-65.25921	629
Tafí del Valle	-26.85275	-65.70983	2000
Taco Pozo	-25.61557	-63.26708	261
Susques	-23.39864	-66.36701	3605
Suncho Corral	-27.93357	-63.42938	135
Sunchales	-30.94404	-61.56148	98
Sumampa	-29.3847	-63.46907	243
Simoca	-27.26272	-65.35647	325
Sierra Grande	-41.60603	-65.35574	245
Sierra Colorada	-40.58487	-67.75674	656
Serrezuela	-30.63761	-65.38692	280
Serrano	-34.46971	-63.53842	147
Senillosa	-39.01412	-68.43281	294
Selva	-29.76776	-62.0477	88
Seguí	-31.95642	-60.12488	102
Sebastián Elcano	-30.16105	-63.5936	211
Saujil	-28.17442	-66.21177	895
Saturnino M. Laspiur	-31.70287	-62.48202	114
Sastre	-31.76762	-61.82887	109
Sarmiento	-45.58815	-69.06996	274
Santo Tomé	-31.66274	-60.7653	19
Santiago Temple	-31.38731	-63.41821	215
Santiago del Estero	-27.79511	-64.26149	188
Santa Victoria	-22.25124	-64.96549	2378
Santa Sylvina	-27.83261	-61.13747	77
Santa Rosa de Tastil	-24.45166	-65.97452	3220
Santa Rosa de Río Primero	-31.15231	-63.40191	171
Santa Rosa del Conlara	-32.34286	-65.20323	591
Santa Rosa de Calamuchita	-32.06905	-64.53631	598
Santa Rosa	-36.61667	-64.28333	179
Santa Rosa	-33.25407	-68.14937	610
Santa María	-26.69547	-66.04732	1885
Santa Magdalena	-34.51776	-63.94409	158
Santa Lucía	-31.53987	-68.49503	620
Santa Isabel	-36.22724	-66.9424	315
Santa Fe	-31.64881	-60.70868	20
Santa Eufemia	-33.17659	-63.28281	155
Santa Clara	-24.30921	-64.66253	573
Santa Catalina	-21.94467	-66.05219	3801
San Salvador de Jujuy	-24.19457	-65.29712	1260
San Ramón de la Nueva Orán	-23.13705	-64.32426	358
San Rafael	-34.61772	-68.33007	702
San Pedro	-27.95386	-65.16651	382
San Pedro de Jujuy	-24.23127	-64.86614	587
Sañogasta	-29.0952	-67.11586	2012
San Nicolás de los Arroyos	-33.33425	-60.2108	28
San Miguel de Tucumán	-26.82414	-65.2226	452
San Martín de los Andes	-40.15789	-71.35337	651
San Martín	-33.08103	-68.46814	661
San Martín	-31.42957	-68.50065	625
San Luis	-33.29501	-66.33563	729
San Lorenzo	-32.74341	-60.73613	30
San Justo	-30.78913	-60.59189	59
San Juan	-31.5375	-68.53639	649
San José de la Dormida	-30.3544	-63.94871	468
San José de Jáchal	-30.24057	-68.74693	1176
San José	-28.38333	-65.7	584
San Jorge	-31.89618	-61.85984	109
San Isidro	-28.46265	-65.72585	518
San Francisco del Monte de Oro	-32.59825	-66.12539	792
San Francisco del Chañar	-29.7883	-63.94411	681
San Francisco	-31.42797	-62.08266	118
San Fernando del Valle de Catamarca	-28.46957	-65.78524	545
San Cristóbal	-30.31053	-61.23724	79
San Carlos de Bolívar	-36.23071	-61.1157	99
San Carlos Centro	-31.72864	-61.09192	44
San Carlos	-31.17761	-65.10245	756
San Carlos	-25.88618	-65.92941	1630
San Blas de los Sauces	-28.41051	-67.09341	1022
San Bernardo	-27.28782	-60.71252	88
San Benito	-31.78371	-60.44156	61
San Basilio	-33.49763	-64.31495	303
San Antonio Oeste	-40.73193	-64.94769	12
San Antonio de los Cobres	-24.21804	-66.31877	3754
San Antonio de Litín	-32.21377	-62.63237	130
San Antonio	-28.01009	-65.70874	1038
San Antonio	-24.36753	-65.33471	1350
San Agustín de Valle Fértil	-30.63353	-67.46821	856
San Agustín	-31.97681	-64.374	548
Samuhú	-27.52116	-60.39167	75
Sampacho	-33.3839	-64.72211	513
Salto	-34.29292	-60.25455	55
Salta	-24.7859	-65.41166	1183
Salsipuedes	-31.13725	-64.29589	739
Salsacate	-31.31842	-65.09003	927
Salliqueló	-36.75216	-62.96053	129
Saldán	-31.30262	-64.307	495
Sacanta	-31.663	-63.04505	166
Rufino	-34.26827	-62.71262	118
Rosario de Lerma	-24.98206	-65.57891	1328
Rosario de la Frontera	-25.79693	-64.97094	787
Rosario	-32.94682	-60.63932	38
Roldán	-32.89846	-60.90681	43
Rojas	-34.19528	-60.735	73
Rodeo	-30.21186	-69.13661	1617
Rivadavia	-33.19051	-68.46081	667
Rivadavia	-31.55389	-68.6525	734
Rivadavia	-24.18552	-62.88535	210
Río Tercero	-32.17301	-64.11405	387
Río Segundo	-31.6526	-63.9099	341
Río Pico	-44.17905	-71.36847	603
Río Mayo	-45.68573	-70.25797	430
Río Grande	-53.78769	-67.70946	9
Río Gallegos	-51.62261	-69.21813	15
Río Cuarto	-33.13067	-64.34992	441
Río Colorado	-38.99397	-64.09295	81
Río Ceballos	-31.16486	-64.32241	705
Rinconada	-22.44083	-66.16779	3915
Recreo	-31.49076	-60.73299	23
Recreo	-29.28184	-65.06096	216
Realicó	-35.03658	-64.2447	167
Rawson	-43.30016	-65.10228	13
Rancul	-35.06862	-64.68107	230
Ramallo	-33.48508	-60.00629	23
Rafaela	-31.25033	-61.4867	103
Rada Tilly	-45.92462	-67.55424	9
Quitilipi	-26.86913	-60.21683	88
Quimilí	-27.64615	-62.41655	135
Quilino	-30.21397	-64.50063	398
Quemú Quemú	-36.05463	-63.56428	121
Punta Alta	-38.87588	-62.07359	8
Puerto Santa Cruz	-50.0191	-68.52321	17
San Julián	-49.30554	-67.72743	20
Puerto Madryn	-42.7692	-65.03851	11
Puerto Deseado	-47.75034	-65.89382	31
Puerta de Corral Quemado	-27.23	-66.93635	1884
Puelches	-38.14562	-65.91426	235
Puan	-37.54576	-62.76723	231
Presidencia Roque Sáenz Peña	-26.78522	-60.43876	97
Pozo Hondo	-27.16607	-64.49	266
Pozo del Tigre	-24.89682	-60.32359	127
Pozo del Molle	-32.0186	-62.91984	160
Porteña	-31.01391	-62.0665	105
Pomán	-28.39455	-66.22052	1167
Pocito	-31.68333	-68.58333	608
Plottier	-38.96667	-68.23333	279
Plaza Huincul	-38.92598	-69.20863	600
Piquillín	-31.30158	-63.75788	285
Pilcaniyeu	-41.12288	-70.72152	987
Pilar	-31.6789	-63.87964	334
Pigüé	-37.60509	-62.40333	294
Piedra del Águila	-40.04811	-70.0741	505
Picún Leufú	-39.51614	-69.28765	386
Pico Truncado	-46.7949	-67.95731	286
Perito Moreno	-46.58995	-70.92975	390
Pergamino	-33.88995	-60.57357	69
Pérez	-32.99835	-60.76791	37
Pellegrini	-36.26584	-63.1655	115
Pehuajó	-35.81077	-61.8968	89
Patquía	-30.04681	-66.88231	435
Paso de Indios	-43.86225	-69.04603	472
Pasco	-32.74733	-63.34232	187
Pascanas	-33.1255	-63.04084	140
Parera	-35.146	-64.50089	202
Paraná	-31.73271	-60.52897	68
Pampa de los Guanacos	-26.23002	-61.83774	161
Pampa del Infierno	-26.50517	-61.17436	126
Palpalá	-24.25647	-65.21163	1126
Palma Sola	-23.97771	-64.30311	664
Oro Verde	-31.82508	-60.51749	86
Ordóñez	-32.84057	-62.86552	138
Oncativo	-31.91353	-63.68201	283
Olta	-30.63117	-66.263	520
Oliva	-32.04158	-63.56978	267
Olavarría	-36.89272	-60.32254	170
Obispo Trejo	-30.78128	-63.41349	103
Nueve de Julio	-35.44437	-60.88313	80
Nueve de Julio	-31.66914	-68.39023	578
Nueva Esperanza	-26.19907	-64.23792	324
Ñorquinco	-41.85072	-70.90173	876
Noetinger	-32.36597	-62.31126	113
Neuquén	-38.95161	-68.0591	281
Naschel	-32.91656	-65.37535	867
Napenay	-26.73333	-60.61667	97
Mutquín	-28.32104	-66.14253	1681
Morteros	-30.71164	-61.99862	99
Morrison	-32.5948	-62.83455	148
Monteros	-27.16741	-65.49832	360
Monte Quemado	-25.80565	-62.83019	224
Monte Maíz	-33.20462	-62.60085	119
Monte Hermoso	-38.9825	-61.29472	13
Monte Cristo	-31.34312	-63.94437	350
Monte Buey	-32.91642	-62.45669	113
Molinos	-25.43935	-66.29412	2042
Miramar	-30.91859	-62.67814	78
Mina Clavero	-31.72101	-65.00619	895
Milagro	-31.00831	-65.99103	377
Miguel Riglos	-36.85398	-63.68842	144
Metán	-25.49905	-64.97388	860
Merlo	-32.34288	-65.01396	863
Mendoza	-32.89084	-68.82717	746
Mendiolaza	-31.26738	-64.30087	540
Melincué	-33.65847	-61.45459	91
Médanos	-38.82803	-62.69355	34
Mattaldi	-34.48194	-64.17255	181
Marull	-30.99471	-62.82576	93
Mariano Moreno	-38.75029	-70.02367	773
Marcos Juárez	-32.6978	-62.10672	117
Maquinchao	-41.24912	-68.70321	898
Malvinas Argentinas	-31.38194	-64.05545	397
Malargüe	-35.47545	-69.58427	1421
Malanzán	-30.80394	-66.60908	889
Malagueño	-31.46467	-64.3584	568
Maipú	-32.97963	-68.78461	813
Mainque	-39.06667	-67.3	218
Maimará	-23.62392	-65.40797	2397
Machagai	-26.92614	-60.04955	90
Macachín	-37.13598	-63.6665	143
San Isidro de Lules	-26.9277	-65.33869	418
Luján de Cuyo	-33.03547	-68.87782	955
Luján	-32.36674	-65.93642	616
Los Varela	-27.93003	-65.87153	1178
Los Telares	-28.98479	-63.44889	107
Los Surgentes	-32.98454	-62.02191	101
Los Menucos	-40.84402	-68.08718	791
Los Juríes	-28.46539	-62.10862	93
Los Frentones	-26.4077	-61.41367	136
Los Cóndores	-32.31983	-64.27751	542
Los Cocos	-30.92497	-64.50207	1179
Los Antiguos	-46.54972	-71.63086	218
Los Altos	-28.04845	-65.49945	499
Lonquimay	-36.46546	-63.62429	142
Londres	-27.71439	-67.13349	1222
Loncopué	-38.07284	-70.61609	963
Lincoln	-34.86649	-61.5302	92
Limay Mahuida	-37.15966	-66.67436	265
Libertador General San Martín	-32.41074	-65.67586	944
Libertador General San Martín	-23.80644	-64.78757	485
Leones	-32.66174	-62.29678	120
Leleque	-42.41225	-71.06797	664
La Viña	-25.46642	-65.5663	1193
La Toma	-33.05258	-65.62385	897
La Tigra	-27.10996	-60.58719	93
Las Varillas	-31.87208	-62.71946	138
Las Varas	-31.8026	-62.61655	128
Las Rosas	-32.47661	-61.58041	107
Las Plumas	-43.72058	-67.28319	169
Las Perdices	-32.69794	-63.70634	253
Las Parejas	-32.68478	-61.51637	104
Las Ovejas	-36.98881	-70.74991	1264
Las Lomitas	-24.70955	-60.59303	134
Las Lajitas	-24.72762	-64.19335	440
Las Lajas	-38.52322	-70.36745	718
Las Junturas	-31.83125	-63.45016	238
Las Higueras	-33.09231	-64.28899	432
Las Heras	-46.54186	-68.93593	336
Las Heras	-32.85273	-68.82837	723
Las Coloradas	-39.55534	-70.59491	913
Las Breñas	-27.08966	-61.08161	104
Las Acequias	-33.28155	-63.9761	295
La Rioja	-29.41105	-66.85067	502
La Quiaca	-22.10236	-65.59299	3451
La Puerta de San José	-27.55	-67.01667	1434
La Puerta	-28.17036	-65.79015	892
Laprida	-37.54415	-60.79969	213
La Poma	-24.72196	-66.20106	3016
La Playosa	-32.10002	-63.03088	175
La Paz	-33.46091	-67.54956	510
La Para	-30.89416	-63.00107	93
La Merced	-28.15195	-65.66029	887
La Mendieta	-24.31187	-64.96377	735
La Maruja	-35.6736	-64.93997	283
Lamarque	-39.42304	-65.70208	128
Laguna Yema	-24.25391	-61.24466	162
Laguna Paiva	-31.30391	-60.65894	24
Laguna Larga	-31.77652	-63.80104	308
La Granja	-31.00919	-64.26869	695
Lago Puelo	-42.06684	-71.60384	207
La Francia	-31.40675	-62.63396	112
La Falda	-31.08841	-64.48987	947
La Cumbre	-30.98201	-64.49139	1146
La Consulta	-33.73579	-69.12181	1025
La Cocha	-27.76927	-65.58711	445
La Clotilde	-27.13333	-60.66667	94
La Cesira	-33.95115	-62.97238	133
La Carlota	-33.41993	-63.29769	147
La Candelaria	-26.12708	-65.0496	1042
La Cañada	-27.70826	-63.77366	156
La Calera	-31.34377	-64.33529	495
La Caldera	-24.60477	-65.38181	1389
Laboulaye	-34.12662	-63.39119	143
Laborde	-33.15319	-62.85661	127
La Banda	-27.73348	-64.24278	193
Justo Daract	-33.8594	-65.18277	421
Justiniano Posse	-32.88411	-62.67788	120
Junín de los Andes	-39.95043	-71.06936	779
Junín	-34.58382	-60.94332	83
Junín	-33.14765	-68.47899	669
José de San Martín	-44.05032	-70.46967	700
Joaquín V. González	-25.11364	-64.12628	362
Jesús María	-30.98153	-64.09424	533
James Craik	-32.1612	-63.46688	246
Jacinto Arauz	-38.08606	-63.43169	162
Italó	-34.79237	-63.78199	144
Isla Verde	-33.24104	-62.40297	121
Iruya	-22.79189	-65.21703	2810
Intendente Alvear	-35.23383	-63.59205	129
Inriville	-32.94424	-62.23028	108
Ingenio La Esperanza	-24.22554	-64.83896	557
Ingeniero Luis A. Huergo	-39.07146	-67.2379	215
Ingeniero Luiggi	-35.38585	-64.46519	192
Ingeniero Jacobacci	-41.3292	-69.55015	872
Ingeniero Guillermo N. Juárez	-23.9	-61.85	185
Idiazábal	-32.81411	-63.03252	150
Icaño	-28.91934	-65.32817	358
Humahuaca	-23.20544	-65.35048	2970
Huinca Renancó	-34.84038	-64.3758	186
Huillapima	-28.72533	-65.9787	467
Huerta Grande	-31.07524	-64.49063	997
Huanchillas	-33.66653	-63.63701	161
Hualfín	-27.22896	-66.83131	1842
Hoyo de Epuyén	-42.07189	-71.50811	231
Hersilia	-30.00447	-61.8408	93
Herrera	-28.48094	-63.06779	111
Hernando	-32.42657	-63.73333	279
Hernández	-32.3373	-60.0216	100
Hermoso Campo	-27.60816	-61.34441	86
Henderson	-36.3	-61.71667	110
Helvecia	-31.09834	-60.0883	26
Guatraché	-37.66776	-63.53021	174
Guatimozín	-33.46149	-62.43844	127
Guaminí	-37.01381	-62.41858	110
Guachipas	-25.52031	-65.50937	1096
Graneros	-27.64934	-65.4383	326
Granadero Baigorria	-32.85683	-60.71754	32
Godoy Cruz	-32.92863	-68.8351	809
Gobernador Gregores	-48.75057	-70.24741	289
Gobernador Gálvez	-33.03016	-60.64045	28
Gobernador Costa	-44.04992	-70.59798	721
General Villegas	-35.03285	-63.01252	112
General Viamonte	-35.00014	-61.03508	73
General San Martín	-37.97904	-63.60449	165
General Roca	-39.03333	-67.58333	237
General Roca	-32.73196	-61.91599	90
General Ramírez	-32.17601	-60.20079	117
General Pinto	-34.76459	-61.89093	101
General Pinedo	-27.31667	-61.28333	95
General Pico	-35.65662	-63.75682	143
General Martín Miguel de Güemes	-24.67034	-65.04765	742
General Manuel J. Campos	-37.46025	-63.58537	159
General Levalle	-34.01472	-63.92413	180
General Lavalle	-32.72218	-68.59137	609
General La Madrid	-37.24755	-61.26273	172
General Fernández Oro	-38.95297	-67.92489	258
General Enrique Mosconi	-23.21667	-62.3	208
General Enrique Mosconi	-22.59588	-63.81255	481
General Enrique Godoy	-39.07891	-67.15807	209
General Conesa	-40.10408	-64.45592	58
General Cabrera	-32.81313	-63.87243	298
General Baldissera	-33.12246	-62.3063	112
General Arenales	-34.30264	-61.30522	90
General Alvear	-36.02078	-60.0145	57
General Alvear	-34.97696	-67.69116	478
General Acha	-37.37698	-64.60431	230
Gastre	-42.26186	-69.22112	1034
Garza	-28.15321	-63.53935	130
Gancedo	-27.49038	-61.67571	105
Gálvez	-32.02927	-61.22103	57
Gaimán	-43.2897	-65.4929	21
Funes	-32.91568	-60.80995	36
Frías	-28.63593	-65.13102	334
Fray Luis Beltrán	-39.31369	-65.76002	135
Fray Luis A. Beltrán	-32.79122	-60.72819	30
Fraile Pintado	-23.94079	-64.79943	463
Firmat	-33.45937	-61.4832	109
Fiambalá	-27.67225	-67.6187	1521
Fernández	-27.92037	-63.89349	155
Famatina	-28.92264	-67.52016	1567
Famaillá	-27.05413	-65.40329	368
Etruria	-32.94008	-63.2466	163
Estanislao del Campo	-25.05504	-60.09218	115
Esquel	-42.91147	-71.31947	577
Esperanza	-31.4488	-60.93173	40
Embarcación	-23.21003	-64.09965	292
Embalse	-32.18	-64.41809	561
Embajador Martini	-35.38633	-64.28092	174
El Trébol	-32.2008	-61.7014	96
El Tío	-31.38357	-62.82938	126
El Simbolar	-27.97167	-64.89544	507
El Rodeo	-28.21518	-65.8742	1296
El Quebrachal	-25.28333	-64.06667	355
El Maitén	-42.04924	-71.16693	704
El Huecú	-37.64522	-70.58006	1224
El Hoyo	-27.02872	-63.23197	176
El Galpón	-25.38069	-64.65259	527
Elena	-32.57205	-64.39481	635
El Cuy	-39.92685	-68.34208	717
El Carril	-25.0741	-65.49174	1168
El Carmen	-24.38682	-65.26177	1178
El Calafate	-50.34075	-72.27682	205
El Bolsón	-41.96051	-71.53336	320
El Arañado	-31.7412	-62.89322	150
El Alto	-28.31123	-65.36397	977
El Aguilar	-23.21572	-65.68005	4040
Eduardo Castex	-35.91501	-64.29448	193
Dolavón	-43.30684	-65.70651	16
Doblas	-37.14967	-64.01183	161
Diamante	-32.06641	-60.63837	71
Devoto	-31.40431	-62.30634	112
Despeñaderos	-31.81626	-64.28989	451
Del Campillo	-34.37659	-64.49504	228
Deán Funes	-30.42036	-64.34984	691
Darwin	-39.20334	-65.73952	137
Dalmacio Vélez Sársfield	-32.61072	-63.58038	235
Daireaux	-36.6	-61.75	118
Cutral-Có	-38.93424	-69.23052	613
Cuchillo Có	-38.33349	-64.64331	248
Cruz del Eje	-30.72644	-64.80387	465
Cruz Alta	-33.00887	-61.80746	78
Crespo	-32.02873	-60.30658	109
Costa Sacate	-31.6477	-63.75935	308
Cosquín	-31.24508	-64.46563	707
Corzuela	-26.95374	-60.96928	106
Corralito	-32.02462	-64.19216	473
Corral de Bustos	-33.28205	-62.18463	118
Coronel Suárez	-37.45467	-61.93343	239
Coronel Pringles	-37.98295	-61.35615	254
Coronel Moldes	-33.6227	-64.59711	365
Coronel Du Graty	-27.68038	-60.91462	82
Coronel Dorrego	-38.71867	-61.28733	112
Coronel Belisle	-39.18688	-65.95422	156
Coronel Baigorria	-32.8477	-64.36107	532
Coronda	-31.97263	-60.91983	19
Córdoba	-31.4135	-64.18105	395
Contraalmirante Cordero	-38.72423	-68.15284	303
Concepción del Bermejo	-26.59926	-60.94617	113
Concepción	-27.34127	-65.59636	374
Concarán	-32.56009	-65.2427	673
Comodoro Rivadavia	-45.86413	-67.49656	65
Comandante Luis Piedra Buena	-49.98513	-68.91467	12
Comallo	-41.02993	-70.26784	772
Colonia San Bartolomé	-31.5278	-62.72436	125
Colonia La Tordilla	-31.23746	-63.06134	141
Colonia Dora	-28.6	-62.95	107
Colonia Barón	-36.15152	-63.85404	154
Colón	-33.89512	-61.1011	91
Clodomira	-27.5744	-64.13108	180
Cipolletti	-38.93392	-67.99032	267
Cintra	-32.30673	-62.65214	130
Cinco Saltos	-38.82225	-68.06293	288
Chumbicha	-28.8543	-66.235	427
Chos Malal	-37.37809	-70.27085	858
Chorotis	-27.91578	-61.39982	76
Choele Choel	-39.28941	-65.6606	131
Chivilcoy	-34.89566	-60.01667	60
Chimpay	-39.16482	-66.14236	158
Chimbas	-31.48333	-68.53333	642
Chilecito	-29.16195	-67.4974	1125
Chicoana	-25.10502	-65.53473	1238
Chichinales	-39.11505	-66.92714	197
Chepes	-31.34363	-66.58894	644
Chazón	-33.07872	-63.27657	164
Charras	-33.024	-64.04719	350
Charata	-27.21438	-61.18795	98
Chamical	-30.36002	-66.31399	473
Chacabuco	-34.64167	-60.47389	73
Cervantes	-39.05444	-67.39426	222
Cerrillos	-24.89833	-65.48706	1256
Ceres	-29.881	-61.94504	90
Centenario	-38.82955	-68.1318	292
Cavanagh	-33.47606	-62.33888	123
Caucete	-31.65179	-68.28105	578
Catriló	-36.40597	-63.42168	129
Catriel	-37.87907	-67.7956	323
Castro Barros	-30.57952	-65.72696	236
Castelli	-25.94679	-60.61947	113
Casilda	-33.04417	-61.16806	79
Carrilobo	-31.87296	-63.11715	185
Carnerillo	-32.91371	-64.02175	322
Carmen de Patagones	-40.79828	-62.98097	31
Carlos Tejedor	-35.39265	-62.42146	96
Carlos Casares	-35.62171	-61.36169	81
Carhué	-37.17668	-62.75792	110
Carcarañá	-32.85679	-61.15331	59
Capitán Bermúdez	-32.82262	-60.71852	35
Capilla del Monte	-30.86088	-64.52515	984
Capayán	-28.77436	-66.04749	445
Candelaria	-32.06036	-65.82477	410
Canals	-33.56542	-62.88927	127
Cañada de Luque	-30.73341	-63.72375	239
Cañada de Gómez	-32.81636	-61.39493	93
Campo Quijano	-24.90982	-65.63656	1501
Campo Largo	-26.80077	-60.84215	106
Campo Gallo	-26.58333	-62.85	194
Camilo Aldao	-33.12745	-62.09453	113
Camarones	-44.79709	-65.70994	32
Calingasta	-31.33394	-69.4208	1369
Calilegua	-23.77368	-64.77002	468
Caleufú	-35.59559	-64.55778	208
Caleta Olivia	-46.43929	-67.52814	17
Calchaquí	-29.88767	-60.28697	59
Caimancito	-23.74069	-64.5937	375
Cafayate	-26.07286	-65.97766	1625
Cachí	-25.12033	-66.16519	2355
Buta Ranquil	-37.05222	-69.87713	1152
Burruyacú	-26.49918	-64.74206	526
Buena Esperanza	-34.75647	-65.25379	323
Buchardo	-34.72263	-63.5092	133
Brinkmann	-30.86589	-62.03742	105
Brea Pozo	-28.24382	-63.95091	143
Bragado	-35.11912	-60.48966	62
Berrotarán	-32.451	-64.38867	631
Bernasconi	-37.90459	-63.7424	164
Bernardo Larroudé	-35.02449	-63.58253	127
Beltrán	-27.82913	-64.06098	172
Bell Ville	-32.62591	-62.68873	132
Bella Vista	-27.03424	-65.30196	366
Belén	-27.65103	-67.02869	1262
Barrancas	-36.82344	-69.91564	1099
Bandera	-28.8884	-62.266	97
Banda del Río Salí	-26.83333	-65.16667	431
Bañado de Ovanta	-28.10564	-65.31884	474
Balnearia	-31.0088	-62.66733	86
Bahía Blanca	-38.71959	-62.27243	24
Aviá Terai	-26.68532	-60.7292	103
Arrufó	-30.23281	-61.72862	94
Arroyo Seco	-33.15489	-60.50863	29
Arroyo Cabral	-32.49119	-63.40126	223
Arroyito	-31.42022	-63.05002	154
Arrecifes	-34.0639	-60.10357	46
Arraga	-28.04978	-64.22254	169
Armstrong	-32.78215	-61.60222	122
Arias	-33.64411	-62.40272	127
Arauco	-28.58071	-66.7925	820
Arata	-35.63895	-64.35621	217
Aranguren	-32.24252	-60.16107	114
Apolinario Saravia	-24.43276	-63.99535	361
Antofagasta de la Sierra	-26.0594	-67.40636	3368
Anguil	-36.52567	-64.01025	159
Añelo	-38.35441	-68.7884	403
Andalgalá	-27.58185	-66.31626	1020
Andacollo	-37.17945	-70.66912	1096
Ancasti	-28.81247	-65.50145	883
Añatuya	-28.46064	-62.83472	111
Aminga	-28.84771	-66.93024	1388
Florentino Ameghino	-34.84405	-62.46701	116
Aluminé	-39.23686	-70.9197	937
Altos de Chipión	-30.9559	-62.33727	109
Alto Río Senguer	-45.04105	-70.81982	697
Alta Italia	-35.3335	-64.11496	167
Alta Gracia	-31.65292	-64.42826	556
Alpachiri	-37.37704	-63.77445	161
Almafuerte	-32.19296	-64.25559	430
Allen	-38.97736	-67.82714	258
Algarrobo del Águila	-36.39968	-67.14511	306
Alejo Ledesma	-33.60643	-62.62304	132
Alejandro Roca	-33.35369	-63.71849	216
Alderetes	-26.81667	-65.13333	454
Alberti	-35.02692	-60.27587	54
Albardón	-31.43722	-68.52556	641
Aimogasta	-28.56091	-66.80588	846
Aguilares	-27.4338	-65.61427	375
Agua de Oro	-31.06661	-64.30017	791
Adelia María	-33.63152	-64.02097	266
Achiras	-33.17538	-64.99331	832
Abra Pampa	-22.72049	-65.69697	3487
Balvanera	-34.61032	-58.39766	35
Villa Santa Rita	-34.61082	-58.481	25
Bella Italia	-31.28182	-61.41092	77
Cariló	-37.16524	-56.89133	6
Villa Mercedes	-33.67571	-65.45783	516
La Punta	-33.18368	-66.3127	814
Villa Berna	-31.91419	-64.73249	1373
Cuesta Blanca	-31.48658	-64.5715	756
Avellaneda	-34.66018	-58.36744	13
San Miguel	-34.54335	-58.71229	30
San Carlos de Bariloche	-41.14557	-71.30822	839
Santa Catalina - Dique Lujan	-34.38375	-58.70673	-2
Río Turbio	-51.53587	-72.33673	324
Adrogué	-34.80041	-58.38384	28
Los Laureles	-29.36847	-59.73634	50
Gato Colorado	-28.02219	-61.18663	71
Tolhuin	-54.51083	-67.1955	121
Villa General Guemes	-24.7553	-59.4894	109
Ingeniero Pablo Nogués	-34.47775	-58.70652	15
Rincón de Los Sauces	-37.39844	-68.92874	608
La Adela	-38.98333	-64.08333	114
José C. Paz	-34.51541	-58.76813	24
Aūa	-14.27611	-170.66389	19
Vaitogi	-14.35889	-170.73472	-9999
Vailoatai	-14.36111	-170.78222	16
Taulaga	-11.05528	-171.08833	8
Ta`ū	-14.23361	-169.51444	12
Tāfuna	-14.33583	-170.72	13
Faleniu	-14.3325	-170.74444	53
Fagatogo	-14.2825	-170.69	141
Faleāsao	-14.2222	-169.51278	28
Leone	-14.34389	-170.785	21
Malaeimi	-14.32278	-170.73389	41
Mapusagafou	-14.33056	-170.75278	111
Ofu	-14.17528	-169.6775	17
Pago Pago	-14.27806	-170.7025	144
Neu-Guntramsdorf	48.0642	16.31573	192
Kleinarl	47.27725	13.31955	1001
Edelstauden	46.98333	15.61667	404
Neuhaus am Klausenbach	46.86667	16.03333	312
Millstatt	46.80417	13.58056	695
Zwölfaxing	48.1099	16.46267	167
Zwettl Stadt	48.60726	15.16714	537
Zwettl an der Rodl	48.46552	14.27133	617
Zwentendorf	48.3453	15.91026	184
Zurndorf	47.98314	17.00315	137
Zöblen	47.50772	10.47971	1089
Zöbern	47.51459	16.13111	630
Zistersdorf	48.54252	16.76136	188
Zirl	47.2741	11.23961	637
Zillingtal	47.81442	16.40928	214
Zillingdorf	47.85	16.33333	238
Ziersdorf	48.5303	15.92691	235
Zeutschach	47.06667	14.36667	1038
Zettling	46.9522	15.4342	327
Zerlach	46.94593	15.65093	336
Zeltweg	47.18333	14.75	652
Zellerndorf	48.69657	15.95841	224
Zellberg	47.23333	11.85	1322
Zell an der Pram	48.31625	13.62923	366
Zell am Ziller	47.23333	11.88333	578
Zell am See	47.32306	12.79839	735
Zell am Pettenfirst	48.08009	13.59936	568
Zell am Moos	47.9	13.31667	574
Zell	47.58333	12.15	516
Zeiselmauer	48.32852	16.17565	173
Zeillern	48.13029	14.8076	292
Zederhaus	47.1557	13.50576	1230
Zams	47.15844	10.5897	770
Zagersdorf	47.76471	16.51382	179
Ybbsitz	47.94745	14.8918	411
Ybbs an der Donau	48.16667	15.08333	218
Würmla	48.25497	15.86031	229
Würflach	47.77648	16.05463	401
Wundschuh	46.92639	15.45111	317
Wullersdorf	48.62792	16.10089	230
Wulkaprodersdorf	47.79753	16.50447	167
Wörth an der Lafnitz	47.21368	16.08081	304
Wörterberg	47.21667	16.1	390
Wörschach	47.55	14.15	644
Wörgl	47.48906	12.06174	506
Wördern	48.334	16.21016	171
Wöllersdorf	47.865	16.17119	318
Wolkersdorf im Weinviertel	48.38333	16.51667	173
Wolfurt	47.46667	9.75	413
Wolfsthal	48.13333	17	159
Wolfsgraben	48.1587	16.12098	323
Wolfsegg am Hausruck	48.10669	13.67274	633
Wolfsberg im Schwarzautal	46.84389	15.65889	289
Wolfsberg	46.84056	14.84417	461
Wolfsbach	48.06667	14.66667	337
Wolfpassing	48.07785	15.06453	298
Wölfnitz	46.66639	14.25806	458
Wolfau	47.25	16.1	370
Wippenham	48.2225	13.3792	425
Winzendorf	47.81154	16.113	328
Winklern bei Oberwölz	47.2	14.23333	977
Winklern	46.87361	12.87472	977
Winklarn	48.09135	14.84819	294
Windischgarsten	47.72223	14.32755	602
Windigsteig	48.76667	15.28333	485
Windhag	47.97906	14.80245	702
Windhaag bei Perg	48.28582	14.68091	517
Windhaag bei Freistadt	48.58774	14.56186	714
Winden am See	47.95	16.75	131
Wimpassing an der Leitha	47.91667	16.43333	207
Wimpassing	48.16667	13.98333	332
Wimpassing im Schwarzatale	47.70295	16.03334	394
Wilten	47.25829	11.38808	588
Willendorf am Steinfelde	47.78929	16.05686	391
Wilhelmsburg	48.10571	15.60539	320
Wilfleinsdorf	48.01667	16.71667	156
Wilfersdorf	48.58333	16.63333	206
Wildon	46.88333	15.51667	320
Wildermieming	47.31667	11.01667	858
Wildalpen	47.65	14.98333	818
Wiesmath	47.61667	16.28333	670
Wiesing	47.40486	11.79708	566
Wiesfleck	47.38458	16.14552	393
Wiesen	47.73776	16.33798	314
Wieselburg	48.13333	15.13333	258
Wies	46.72028	15.27194	334
Wienersdorf	48.00819	16.29169	204
Wiener Neustadt	47.80485	16.23196	270
Wiener Neudorf	48.08278	16.31384	202
Vienna	48.20849	16.37208	193
Weyregg	47.90294	13.57193	477
Weyer	47.85717	14.66409	404
Wetzelsdorf	47.05293	15.39923	362
Wettmannstätten	46.83056	15.38722	301
Westendorf	47.43208	12.21406	782
Wernstein am Inn	48.50802	13.461	320
Wernersdorf	46.71592	15.20718	383
Werndorf	46.92417	15.49083	309
Wernberg	46.61667	13.93333	530
Werfenweng	47.46204	13.25582	890
Werfen	47.47585	13.1902	547
Weppersdorf	47.57954	16.42679	300
Wenns	47.16667	10.73333	956
Weng im Innkreis	48.23508	13.17801	368
Wendling	48.23182	13.66622	409
Wels	48.16667	14.03333	317
Weiz	47.21667	15.61667	506
Weitra	48.7	14.88333	569
Weitersfelden	48.4773	14.72546	729
Weitersfeld	48.78097	15.81345	414
Weitensfeld	46.84743	14.19213	701
Weiten	48.29564	15.2601	344
Weistrach	48.05	14.58333	356
Weißkirchen in Steiermark	47.15	14.73333	690
Weisskirchen an der Traun	48.16202	14.12395	309
Weißenkirchen in der Wachau	48.3979	15.46931	218
Weißenbach bei Liezen	47.56667	14.21667	635
Weissenbach an der Triesting	47.98211	16.03935	357
Weissenbach am Lech	47.44162	10.64071	882
Weissach	47.57091	12.16255	499
Weinzierl bei Krems	48.4	15.6	207
Weinzierl am Walde	48.43211	15.4321	643
Weingraben	47.51393	16.36375	409
Weinburg am Saßbach	46.75361	15.72111	254
Weinburg	48.11351	15.53295	306
Weiler	47.29972	9.65	468
Weilbach	48.27725	13.37165	382
Weikersdorf am Steinfelde	47.80612	16.14389	303
Weikendorf	48.34438	16.76651	150
Weigelsdorf	47.95	16.4	202
Weidling	48.291	16.30865	198
Weiden bei Rechnitz	47.3	16.35	337
Weiden am See	47.92532	16.86899	126
Weichselbaum	46.9425	16.1875	237
Weibern	48.18333	13.7	439
Weer	47.30375	11.64498	631
Wattens	47.29419	11.5907	555
Wattenberg	47.28333	11.6	782
Wartmannstetten	47.69359	16.07506	403
Warth	47.65	16.11667	466
Warth	47.25	10.18333	1332
Wartberg ob der Aist	48.34792	14.50796	462
Wartberg an der Krems	47.98909	14.11863	378
Wartberg	47.52717	15.48095	579
Wängle	47.48658	10.68995	884
Wang	48.04538	15.02672	321
Waltendorf	47.06667	15.46667	377
Wals	47.78333	12.96667	439
Walpersbach	47.71667	16.23333	375
Wallsee	48.16667	14.71667	276
Wallern im Burgenland	47.72847	16.93706	118
Wallern an der Trattnach	48.23296	13.9462	300
Waldzell	48.13562	13.42701	511
Waldprechting	47.9	13.11667	530
Waldneukirchen	47.99854	14.25879	431
Waldkirchen an der Thaya	48.93333	15.35	487
Waldkirchen am Wesen	48.44059	13.82174	557
Walding	48.35209	14.1576	277
Wald im Pinzgau	47.25	12.23333	1033
Waldhausen	48.52183	15.2625	676
Waldenstein	48.72845	15.01419	578
Waldegg	47.86852	16.05154	373
Wald am Schoberpaß	47.44936	14.67567	843
Walchsee	47.65163	12.31868	663
Walchen	47.28822	12.68739	792
Waizenkirchen	48.33018	13.85754	368
Waiern	46.73028	14.08194	590
Waidring	47.58333	12.56667	796
Waidmannsfeld	47.87042	15.98116	475
Waidhofen an der Ybbs	47.96004	14.77361	360
Waidhofen an der Thaya	48.81667	15.28333	493
Wagram	48.23828	14.22996	274
Wagrain	47.33528	13.29889	849
Wagnitz	46.98333	15.46667	322
Wagna	46.76682	15.55906	263
Vösendorf	48.12107	16.34036	192
Murau	47.11056	14.16944	841
Vorderthiersee	47.58333	12.1	823
Vordernberg	47.48809	14.99436	827
Vorderhornbach	47.37009	10.53947	976
Vorchdorf	48.00388	13.92122	410
Vorau	47.40548	15.88754	650
Vomp	47.33333	11.68333	542
Völs	47.25	11.33333	605
Völkermarkt	46.66222	14.63444	463
Völkendorf	46.60806	13.83153	520
Voldöpp	47.44469	11.88343	519
Volders	47.28333	11.56667	583
Voitsberg	47.04445	15.15313	410
Vöcklamarkt	48.0025	13.48383	488
Vöcklabruck	48.00279	13.65652	438
Vitis	48.75964	15.18259	520
Virgen	47.00159	12.45661	1166
Vils	47.55	10.63333	816
Villach	46.61028	13.85583	494
Viktring	46.59194	14.26917	458
Viktorsberg	47.30092	9.67484	807
Vigaun	47.66667	13.13333	458
Viehofen	48.21667	15.61667	286
Viehhofen	47.36667	12.73333	855
Viehhausen	47.78333	12.98333	435
Viechtwang	47.91531	13.96345	504
Velm	48.03333	16.43333	175
Velden am Wörthersee	46.61301	14.0413	448
Veitsch	47.57815	15.4945	666
Utzenaich	48.27622	13.46091	399
Uttendorf	48.15887	13.1218	393
Uttendorf	47.28333	12.56667	780
Utschtal	47.4	15.2	664
Unterwart	47.25	16.23333	338
Unterwaltersdorf	47.95	16.41667	198
Unterwagram	48.21243	15.64951	259
Untertauern	47.3	13.5	1166
Unterstinkenbrunn	48.6677	16.34607	196
Untersiebenbrunn	48.25	16.73333	146
Rohrbach an der Gölsen	48.04699	15.74169	400
Unterpremstätten	46.96472	15.40417	336
Unterperfuss	47.26667	11.25	595
Unterlangkampfen	47.55	12.1	516
Unterlamm	46.97694	16.06389	312
Unterkohlstätten	47.38333	16.31667	476
Grünburg	47.97234	14.26472	359
Unterfrauenhaid	47.57116	16.49885	286
Unterfladnitz	47.18333	15.66667	408
Untere Fellach	46.62504	13.82681	510
Unterbergla	46.80746	15.31516	345
Unterauersbach	46.86556	15.77028	322
Unken	47.64966	12.72946	546
Ungerdorf	47.08333	15.66667	454
Ungenach	48.04756	13.61472	488
Umhausen	47.13503	10.92826	1057
Ulrichskirchen	48.4	16.48333	204
Ulrichsberg	48.67498	13.91049	630
Uderns	47.31667	11.86667	541
Übersbach	47.02318	16.05517	258
Übersaxen	47.25284	9.6708	897
Übelbach	47.22534	15.23615	570
Tweng	47.18333	13.6	1435
Türnitz	47.93095	15.49295	457
Turnau	47.55776	15.33739	750
Tulln	48.32829	16.05858	175
Tulfes	47.25806	11.53333	912
Tulbing	48.29336	16.12226	183
Tschanigraben	47.01667	16.3	296
Tschagguns	47.08333	9.9	667
Trumau	47.99348	16.34268	201
Trössing	46.81667	15.81667	268
Trofaiach	47.42524	15.00681	660
Tristach	46.81611	12.78972	668
Trins	47.08333	11.41667	1229
Triebendorf	47.11667	14.23333	878
Trieben	47.48574	14.48744	683
Tribuswinkel	48.00623	16.27075	211
Treibach	46.86667	14.46667	611
Treglwang	47.47458	14.59083	730
Trebesing	46.88639	13.51028	790
Trautmannsdorf in Oststeiermark	46.8753	15.88451	281
Trautmannsdorf an der Leitha	48.02357	16.63266	167
Trausdorf an der Wulka	47.8135	16.5576	153
Bad Traunstein	48.4385	15.11712	833
Traunkirchen	47.84462	13.78939	433
Traun	48.22086	14.23833	270
Trattenbach	47.6	15.86667	1183
Traismauer	48.35	15.73333	193
Traiskirchen	48.01485	16.29324	204
Traisen	48.03333	15.6	396
Trahütten	46.825	15.15694	972
Tragwein	48.33314	14.62237	484
Traboch	47.37705	14.98647	619
Tobaj	47.08333	16.3	233
Tobadill	47.12513	10.51404	1163
Timelkam	48.00394	13.6076	446
Tieschen	46.78611	15.94222	247
Tiefgraben	47.87385	13.30591	566
Thüringen	47.2	9.76667	561
Thumersbach	47.32952	12.81675	769
Thörl	47.51952	15.22276	635
Thomatal	47.06667	13.75	1143
Thomasberg	47.56667	16.13333	674
Theresienfeld	47.85	16.23333	280
Thaya	48.85489	15.28902	486
Thaur	47.29476	11.47529	599
Thalheim bei Wels	48.15	14.03333	339
Thalgau	47.84142	13.25325	546
Teufenbach	47.1287	14.35913	763
Ternitz	47.71565	16.03575	395
Ternberg	47.94518	14.3587	342
Terfens	47.32355	11.64388	587
Telfs	47.30707	11.06817	637
Telfes im Stubai	47.16667	11.36667	924
Teesdorf	47.95	16.28333	234
Taxenbach	47.29116	12.96215	741
Taxach	47.7261	13.07184	426
Tauplitz	47.56005	14.01293	890
Taufkirchen an der Trattnach	48.24731	13.74767	380
Tattendorf	47.95	16.3	229
Tarrenz	47.26667	10.76667	816
Tannheim	47.49934	10.51641	1099
Tamsweg	47.12808	13.81102	1026
Taiskirchen im Innkreis	48.26468	13.57318	472
Tadten	47.76667	16.98333	119
Sulzberg	47.52178	9.91353	1010
Sulz	47.28721	9.65183	489
Sulztal an der Weinstraße	46.68333	15.55	452
Stummerberg	47.28333	11.91667	1160
Stumm	47.29052	11.88755	557
Stuhlfelden	47.28761	12.52755	792
Studenzen	47.00583	15.75417	319
Stubenberg	47.2446	15.80027	444
Stronsdorf	48.65157	16.2989	204
Strobl	47.71667	13.48333	546
Strengen	47.12589	10.46199	1011
Strengberg	48.14685	14.65147	327
Strem	47.04498	16.41426	209
Stratzing	48.45	15.6	325
Strasswalchen	47.97947	13.25535	530
Straß in Steiermark	46.72722	15.62444	255
Strasshof an der Nordbahn	48.31667	16.66667	161
Strassham	48.28348	14.14524	268
Straßgang	47.03333	15.4	351
Strassengel	47.11573	15.33288	388
Strassen	46.75389	12.48417	1222
Straßburg-Stadt	46.89444	14.32861	647
Strass im Zillertal	47.39556	11.81966	524
Strass	48.46667	15.73333	209
Strallegg	47.41165	15.72534	861
Straden	46.80917	15.86806	336
Stotzing	47.90688	16.5458	239
Stössing	48.12267	15.81379	342
Stoob	47.52845	16.4776	262
Stollhofen	48.35226	15.75963	189
Stockerau	48.38333	16.21667	171
Stockenboi	46.72611	13.52306	872
Stiwoll	47.1	15.21667	501
Steinbrunn	47.83333	16.41667	211
Stinatz	47.20266	16.13312	343
Steyregg	48.28513	14.36995	252
Steyr	48.04274	14.42127	285
Steuerberg	46.78804	14.1129	796
Stetten	48.36667	16.38333	181
Stetteldorf am Wagram	48.40815	16.01862	208
Stephanshart	48.15	14.81667	303
Stenzengreith	47.2	15.51667	750
Steinhaus	48.11614	14.0189	375
Steinfeld	46.75812	13.24934	623
Steinerkirchen an der Traun	48.07911	13.95796	356
Steindorf am Ossiacher See	46.69833	14.00917	528
Steinbach am Attersee	47.83087	13.54613	475
Stein an der Donau	48.40163	15.58102	200
Steinakirchen am Forst	48.06965	15.04801	321
Steinach am Brenner	47.08333	11.46667	1139
Steinabrückl	47.87053	16.20277	309
Stein	46.99778	16.08694	263
Stegersbach	47.16667	16.16667	286
Steeg	47.24393	10.29436	1116
Statzendorf	48.30752	15.64127	284
Stattersdorf	48.18333	15.63333	273
Stattegg	47.13333	15.41667	475
Stanz bei Landeck	47.14758	10.5534	1025
Stanzach	47.38333	10.56667	961
Stans	47.36667	11.71667	555
Stams	47.27603	10.98315	683
Stambach	47.33333	15.93333	601
Stallhofen	47.05	15.21667	413
Stallhof	46.88333	15.28333	327
Stallehr	47.13306	9.85	653
Stall	46.89056	13.03694	967
Stainz bei Straden	46.82444	15.89222	251
Stainz	46.89444	15.26722	337
Stainach	47.53343	14.10872	663
Stadtschlaining	47.31667	16.28333	343
Stadl-Traun	48.07963	13.8614	349
Stadl-Paura	48.08333	13.86667	360
Stadl-Hausruck	48.08255	13.85213	354
Stadl an der Mur	47.08333	13.96667	890
Staatz	48.67617	16.48726	241
Spratzern	48.17044	15.61844	286
Spitz	48.3656	15.41416	223
Spittal an der Drau	46.8	13.5	553
Spital am Semmering	47.61345	15.75096	790
Spital am Pyhrn	47.66487	14.34014	644
Spillern	48.38333	16.25	177
Spielfeld	46.70556	15.63722	258
Spielberg bei Knittelfeld	47.21667	14.78333	707
Spatenhof	46.9625	15.36111	353
Spannberg	48.46393	16.73647	170
Sooss	47.98464	16.21737	246
Sonntagberg	47.99561	14.76065	680
Sommerein	47.98333	16.65	257
Sollenau	47.89834	16.24833	261
Söll	47.50378	12.19221	691
Sölden	46.96667	11	1526
Hall in Tirol	47.28333	11.51667	587
Södingberg	47.10703	15.17169	457
Söchau	47.03333	16.01667	277
Soboth	46.68139	15.07833	1009
Sitzendorf an der Schmida	48.59841	15.94254	241
Sittersdorf	46.54444	14.60583	501
Sistrans	47.23333	11.45	988
Sinabelkirchen	47.102	15.82795	311
Simmering	48.18333	16.43333	163
Silz	47.26667	10.93333	650
Sillian	46.75278	12.42111	1218
Silbertal	47.09368	9.98314	886
Sigmundsherberg	48.68333	15.75	435
Sigless	47.77533	16.39503	208
Siezenheim	47.81529	12.99039	427
Sierning	48.04343	14.30935	359
Sierndorf	48.43024	16.16658	190
Sieghartskirchen	48.25531	16.01223	198
Sieggraben	47.65128	16.37993	466
Siegersdorf bei Herberstein	47.2	15.78333	412
Siegendorf im Burgenland	47.78098	16.54232	162
Sibratsgfäll	47.42667	10.03806	931
Seyring	48.33333	16.48333	165
Serfaus	47.04018	10.60339	1449
Senftenberg	48.45222	15.54452	327
Semriach	47.21667	15.4	695
Semmering	47.63347	15.82993	986
Selzthal	47.54988	14.31201	634
Seitenstetten Markt	48.03333	14.65	345
Seiersberg	47	15.4	342
Seibersdorf	47.95858	16.51842	184
Seggauberg	46.76667	15.51667	324
Seewalchen	47.95246	13.58382	493
Seewalchen	47.9	13.13333	510
Seekirchen am Wallersee	47.9	13.13333	510
Seeham	47.96746	13.07699	512
Seefeld in Tirol	47.33016	11.18786	1178
Seeboden	46.81909	13.5143	620
Seebenstein	47.69936	16.14484	345
Seebach	46.61667	13.86667	494
See	47.08333	10.46667	1036
Seckau	47.26667	14.78333	848
Sebersdorf	47.1865	15.9936	298
Schwoich	47.546	12.14049	571
Schwertberg	48.2734	14.58474	264
Schwendt	47.63182	12.39266	706
Schwendau	47.19753	11.85897	618
Schweinbach	48.34033	14.42247	337
Schweiggers	48.66667	15.06667	638
Schwechat	48.13333	16.46667	163
Schwaz	47.35169	11.71014	537
Schwarzenbach an der Pielach	47.93333	15.38333	750
Schwarzenbach	47.63547	16.35109	376
Schwarzenau	48.74436	15.25838	499
Schwarzau im Schwarzautal	46.87886	15.66421	297
Schwarzau im Gebirge	47.81223	15.70581	610
Schwarzau am Steinfeld	47.73183	16.17094	327
Schwarzach im Pongau	47.32048	13.15171	594
Schwarzach	47.44904	9.76213	430
Schwanenstadt	48.05537	13.77505	390
Schwanberg	46.75833	15.20833	401
Schwadorf	48.06936	16.57957	164
Schützen am Gebirge	47.85233	16.62334	126
Schruns	47.08028	9.91917	827
Schrems bei Frohnleiten	47.28109	15.35932	479
Schrems	48.78333	15.06667	526
Schrattenthal	48.7	15.9	244
Schrattenberg	48.72359	16.72201	201
Schrattenbach	47.77902	15.9906	556
Schottwien	47.65683	15.8725	570
Schörfling	47.94544	13.60408	509
Schoppernau	47.31205	10.01646	839
Schönwies	47.19665	10.65742	738
Schönering	48.29838	14.16103	266
Schöndorf	48.00167	13.6588	424
Schönberg im Stubaital	47.18333	11.41667	811
Schönbach	48.45	15.03333	798
Schönau an der Triesting	47.93452	16.25376	250
Schöder	47.18333	14.1	1031
Schnifis	47.21667	9.73306	713
Schnepfau	47.35206	9.9452	738
Schmirn	47.08333	11.56667	1436
Schlüsslberg	48.21861	13.87161	322
Schlitters	47.38045	11.83888	532
Schlins	47.2	9.7	499
Schlierbach	47.93636	14.12018	409
Schleinbach	48.41992	16.47809	195
Schleedorf	47.95	13.15	600
Schlatt	48.07177	13.78904	404
Schladming	47.39289	13.68699	738
Schildorn	48.14564	13.46314	524
Schiefling am See	46.60444	14.0975	567
Schenkenfelden	48.50273	14.36188	737
Scheifling	47.15044	14.41278	766
Scheibbs	48.00474	15.16817	344
Scheffau am Wilden Kaiser	47.52943	12.25139	749
Scheffau am Tennengebirge	47.58831	13.2202	497
Schattwald	47.51427	10.46143	1074
Schattendorf	47.70973	16.50979	250
Scharnstein	47.90426	13.96135	512
Scharnitz	47.38899	11.26455	963
Scharndorf	48.09399	16.79883	188
Schärding	48.45294	13.43722	319
Schardenberg	48.52058	13.49791	537
Schandorf	47.24183	16.42267	261
Schalchham	47.99825	13.67188	417
Schalchen	48.11924	13.15716	437
Schafwiesen	48.17194	14.07067	306
Schäffern	47.47771	16.10956	598
Schachendorf	47.26667	16.43333	279
Sautens	47.2	10.86667	971
Bad Sauerbrunn	47.77439	16.32841	281
Sattledt	48.07372	14.05478	393
Satteins	47.21667	9.66667	479
Sarleinsbach	48.54525	13.90491	569
Sankt Wolfgang im Salzkammergut	47.73932	13.44666	556
Sankt Veit in Defereggen	46.92722	12.42972	1455
Sankt Veit im Pongau	47.33333	13.15	763
Sankt Veit an der Gölsen	48.0432	15.66942	367
Sankt Veit an der Glan	46.76806	14.36028	485
Sankt Veit am Vogau	46.74048	15.64217	267
Sankt Valentin	48.16667	14.51667	269
Sankt Ulrich bei Steyr	48.02116	14.43685	419
Sankt Ulrich am Waasen	46.93333	15.53333	369
Sankt Ulrich am Pillersee	47.5274	12.57239	845
Sankt Stefan ob Stainz	46.92861	15.25889	376
Sankt Stefan ob Leoben	47.31672	14.97831	590
Sankt Stefan im Rosental	46.90389	15.71	327
Sankt Stefan	46.8075	14.85167	435
Sankt Ruprecht an der Raab	47.15336	15.66256	381
Sankt Ruprecht	46.6	14.31667	438
Sankt Roman	48.48183	13.61056	566
Sankt Radegund bei Graz	47.18172	15.49192	705
Sankt Pölten	48.2	15.63333	275
Sankt Peter ob Judenburg	47.18417	14.58639	792
Sankt Peter in der Au Markt	48.044	14.62182	353
Sankt Peter im Sulmtal	46.75	15.25	410
Sankt Peter-Freienstein	47.38333	15.01667	859
Sankt Peter am Ottersbach	46.79778	15.75917	273
Sankt Peter am Kammersberg	47.18706	14.18464	833
Sankt Peter	47.05	15.46667	353
Sankt Peter	46.62978	14.34016	438
Sankt Peter am Hart	48.25268	13.09613	371
Sankt Paul im Levanttal	46.70056	14.87556	380
Sankt Pantaleon	48.21058	14.56804	237
Sankt Oswald bei Plankenwarth	47.08701	15.27703	538
Sankt Oswald bei Freistadt	48.5	14.58333	612
Sankt Nikolai ob Draßling	46.80889	15.65083	282
Sankt Nikolai im Sölktal	47.31667	14.05	1203
Sankt Nikolai im Sausal	46.82111	15.45194	325
Sankt Michael in Obersteiermark	47.33839	15.01784	581
Sankt Michael im Lungau	47.1	13.63333	1088
Sankt Michael im Burgenland	47.12852	16.27148	252
Sankt Martin im Sulmtal	46.75611	15.29722	336
Sankt Martin im Mühlkreis	48.41553	14.03821	546
Sankt Martin im Innkreis	48.29387	13.43868	371
Sankt Martin bei Lofer	47.56667	12.7	683
Sankt Martin an der Raab	46.9225	16.13611	241
Sankt Martin am Ybbsfelde	48.16425	15.02076	294
Sankt Martin am Grimming	47.48873	13.98105	699
Sankt Martin	46.61667	14.28333	443
Sankt Martin	46.61721	13.82879	482
Sankt Martin	48.23091	14.26781	263
Sankt Martin	47.44667	15.2849	514
Sankt Marien	48.14805	14.27759	335
Sankt Margareten im Rosental	46.54417	14.42444	570
Sankt Margarethen im Lungau	47.07927	13.69613	1063
Sankt Margarethen im Burgenland	47.80335	16.60875	147
Sankt Margarethen bei Knittelfeld	47.21667	14.86667	833
Sankt Margarethen an der Sierning	48.1591	15.49055	253
Sankt Margarethen an der Raab	47.05	15.75	323
Sankt Marein im Mürztal	47.46667	15.36667	523
Sankt Marein bei Neumarkt	47.06591	14.42908	826
Sankt Marein bei Knittelfeld	47.27396	14.86085	705
Sankt Marein bei Graz	47.01583	15.68389	358
Sankt Magdalen	46.61667	13.88333	497
Sankt Lorenzen im Mürztal	47.48333	15.36667	568
Sankt Lorenzen bei Scheifling	47.14556	14.40583	793
Sankt Lorenzen bei Knittelfeld	47.25078	14.89549	603
Sankt Lorenzen am Wechsel	47.44153	15.95498	738
Sankt Lorenz	47.8324	13.34839	490
Sankt Leonhard am Hornerwald	48.6	15.53333	523
Sankt Leonhard am Forst	48.14232	15.28464	244
Sankt Leonhard	47.72587	13.04577	451
Sankt Leonhard	46.62528	13.85865	517
Sankt Lambrecht	47.06667	14.3	1047
Sankt Kathrein am Offenegg	47.3	15.58333	969
Sankt Kathrein am Hauenstein	47.48943	15.69414	805
Sankt Katharein an der Laming	47.47069	15.16319	646
Sankt Josef (Weststeiermark)	46.90917	15.33639	351
Sankt Johann in Tirol	47.5233	12.4232	659
Sankt Johann in der Haide	47.2808	16.02579	387
Sankt Johann im Saggautal	46.70389	15.40278	344
Sankt Johann im Pongau	47.35	13.2	597
Sankt Johann bei Herberstein	47.2	15.8	425
Sankt Johann am Tauern	47.35	14.46667	1085
Sankt Jakob im Walde	47.46667	15.78333	941
Sankt Jakob-Breitenau	47.39229	15.4297	614
Sankt Ilgen	47.55	15.16667	861
Sankt Gotthard im Mühlkreis	48.3802	14.13185	468
Sankt Gilgen	47.76667	13.36667	544
Sankt Georgen ob Murau	47.1	14.1	844
Sankt Georgen ob Judenburg	47.20744	14.49736	734
Sankt Georgen im Attergau	47.93595	13.48306	537
Sankt Georgen bei Obernberg am Inn	48.29193	13.3332	356
Sankt Georgen an der Stiefing	46.87333	15.57972	301
Sankt Georgen an der Leys	48.03149	15.22722	380
Sankt Georgen an der Gusen	48.27183	14.44951	245
Sankt Georgen am Ybbsfelde	48.12892	14.95364	266
Sankt Georgen am Leithagebirge	47.85	16.55	157
Sankt Georgen am Fillmannsbach	48.1256	13.00811	449
Sankt Gallenkirch	47.02102	9.97335	879
Sankt Gallen	47.68631	14.61705	516
Sankt Dionysen	48.22439	14.25485	268
Sankt Corona am Wechsel	47.58333	16	866
Sankt Blasen	47.08333	14.3	1296
Sankt Bartholomä	47.05457	15.25889	479
Sankt Anton im Montafon	47.11667	9.86667	706
St Anton am Arlberg	47.1275	10.26372	1307
Sankt Anna am Aigen	46.83111	15.97139	365
Sankt Andrä vor dem Hagenthale	48.32202	16.20724	192
Sankt Andrä im Lungau	47.15	13.78333	1129
Sankt Andrä am Zicksee	47.7841	16.94195	124
Sankt Andrä	46.76829	14.81991	430
Sankt Aegyd am Neuwalde	47.85383	15.56969	578
Sankt Aegidi	48.47929	13.73737	596
Sammersdorf	48.18091	14.1667	289
Salzburg	47.79941	13.04399	435
Sallingberg	48.46667	15.23333	759
Salla	47.1	14.96667	1015
Sachsenburg	46.82917	13.355	557
Saalfelden am Steinernen Meer	47.42681	12.848	742
Saalbach	47.39138	12.63642	1003
Rutzenham	48.06076	13.71883	409
Rüstorf	48.04326	13.78982	378
Rust	47.80122	16.67158	127
Ruprechtshofen	48.13648	15.27675	241
Rum	47.28333	11.45	623
Rufling	48.27839	14.21674	331
Rudersdorf	47.05	16.11667	245
Ruden	46.65833	14.77639	570
Rottenmann	47.51667	14.35	883
Röthis	47.29332	9.65484	501
Röthelstein	47.31667	15.36667	588
Rotenturm an der Pinka	47.25	16.25	293
Rosenau am Sonntagberg	48.00778	14.73927	340
Rosegg	46.58833	14.01718	480
Röschitz	48.64312	15.81774	324
Roppen	47.21667	10.81667	695
Röns	47.21667	9.7	615
Roitham	48.02432	13.82166	421
Rohr im Gebirge	47.89471	15.73603	673
Rohr im Burgenland	47.11667	16.16667	252
Röhrenbach	48.65	15.5	465
Rohrbach in Oberösterreich	48.57275	13.98834	596
Rohrbach bei Mattersburg	47.7052	16.43005	279
Rohrbach an der Lafnitz	47.38333	16	433
Rohrau	48.06667	16.85	144
Ritzing	47.61316	16.49546	320
Rinn	47.25	11.5	907
Riezlern	47.35778	10.18759	1092
Rietz	47.28593	11.03075	698
Ries	47.08315	15.485	398
Riegersburg	47	15.93028	303
Riefensberg	47.50137	9.95838	758
Riedlingsdorf	47.35	16.13333	374
Ried in der Riedmark	48.27114	14.52796	303
Ried im Traunkreis	48.02581	14.07452	466
Ried im Oberinntal	47.05	10.65	888
Ried im Innkreis	48.21123	13.48855	435
Reutte	47.48333	10.71667	856
Reuthe	47.37113	9.89481	647
Retznei	46.73333	15.56667	300
Retz	48.75712	15.95485	250
Rettenschöss	47.65718	12.26872	676
Rettenegg	47.52694	15.78104	857
Rennweg am Katschberg	47.01667	13.61667	1162
Reith bei Seefeld	47.3	11.2	1100
Reith bei Kitzbühel	47.46667	12.35	766
Reith im Alpbachtal	47.41694	11.87785	636
Reiterndorf	47.70364	13.62914	494
Reisenberg	47.99406	16.52018	179
Reinsberg	47.98567	15.07067	477
Reingers	48.96667	15.13333	611
Reifling	47.13333	14.66667	1187
Reichraming	47.88333	14.45	359
Reichenthal	48.54286	14.38471	685
Reichenfels	47.00718	14.74425	798
Reichendorf	47.18922	15.7616	458
Reichenau im Mühlkreis	48.45704	14.34875	678
Reichenau an der Rax	47.69509	15.84572	482
Rehberg	48.43114	15.58702	226
Redlham	48.02443	13.74738	401
Redleiten	48.08138	13.46894	554
Reding	46.81667	14.85	443
Rechnitz	47.30467	16.44095	348
Raxendorf	48.34108	15.27666	516
Ravelsbach	48.55	15.85	280
Rauris	47.22656	12.99459	945
Rauchenwarth	48.0833	16.52794	206
Rattenberg	47.43941	11.89407	524
Ratten	47.48333	15.71667	779
Ratschendorf	46.74222	15.81583	243
Ratsch an der Weinstraße	46.68944	15.57111	349
Rastenfeld	48.57348	15.33176	575
Rassach	46.86028	15.27	382
Rappottenstein	48.52161	15.07925	666
Ranten	47.15949	14.08349	936
Ranshofen	48.23308	13.01571	358
Rannersdorf	48.12772	16.46379	167
Rankweil	47.27108	9.64308	471
Raning	46.85	15.81667	285
Ranggen	47.25727	11.2112	829
Rangersdorf	46.86001	12.94923	860
Randegg	48.01198	14.97334	361
Ramsau	48.00313	15.80332	466
Ramsau am Dachstein	47.4215	13.65545	1123
Ramsau im Zillertal	47.20383	11.87545	600
Ramingstein	47.07462	13.83642	978
Rainbach im Mühlkreis	48.55758	14.47449	695
Raiding	47.56581	16.53056	252
Ragnitz	46.83667	15.59278	278
Raggal	47.21082	9.83688	1011
Raffelstetten	48.23759	14.40273	245
Radstadt	47.38333	13.45	839
Bad Radkersburg	46.68806	15.98806	212
Radfeld	47.44806	11.91424	512
Radenthein	46.80056	13.71167	722
Rachau	47.21667	14.9	796
Rabenwald	47.4	15.9	658
Rabenstein an der Pielach	48.06535	15.46772	343
Rabensburg	48.65	16.9	167
Raasdorf	48.24657	16.56532	154
Raach am Hochgebirge	47.63333	15.93333	771
Raabs an der Thaya	48.85	15.5	447
Raabau	46.96278	15.91167	289
Raaba	47.03333	15.5	360
Raab	48.35243	13.64691	380
Pyhra	48.1591	15.68624	293
Pusterwald	47.30611	14.37556	1073
Purkersdorf	48.20769	16.17539	250
Purgstall	48.05841	15.13478	297
Purbach am Neusiedler See	47.91289	16.69561	126
Puntigam	47.03333	15.43333	348
Pulkau	48.70484	15.86031	260
Pühret	48.03488	13.72252	437
Pucking	48.18886	14.18824	286
Puchheim	48	13.71667	405
Puchenstuben	47.92819	15.28748	862
Puchenau	48.31214	14.23614	288
Puchberg am Schneeberg	47.78709	15.91352	572
Puch bei Weiz	47.21667	15.71667	406
Puch bei Hallein	47.71536	13.09296	465
Prutz	47.08333	10.66667	865
Pruggern	47.4237	13.87625	687
Proleb	47.4	15.13333	579
Prinzersdorf	48.2	15.51667	268
Prigglitz	47.70318	15.92794	637
Hofamt Priel	48.19581	15.07746	271
Pressbaum	48.18333	16.08333	317
Prellenkirchen	48.07401	16.95233	171
Preitenegg	46.94	14.92583	1069
Pregarten	48.35488	14.53217	423
Preding	46.85861	15.40972	329
Pramet	48.14295	13.48752	508
Prambachkirchen	48.31711	13.90449	374
Pram	48.23536	13.60579	435
Prägraten	47.01667	12.38333	1297
Pradl	47.26539	11.4152	572
Poysdorf	48.66667	16.63333	203
Potzneusiedl	48.04504	16.9477	154
Pöttsching	47.80445	16.37109	218
Pottschach	47.69856	16.00725	402
Pötting	48.28325	13.77059	379
Pottenstein	47.9582	16.0948	324
Pottendorf	47.9	16.38333	219
Pottenbrunn	48.23333	15.7	248
Pöttelsdorf	47.75369	16.43864	209
Pörtschach am Wörthersee	46.63639	14.14639	449
Poppendorf	46.85611	15.85639	308
Pöls	47.21667	14.58333	791
Polling in Tirol	47.28333	11.15	605
Pöllauberg	47.31667	15.85	625
Pöllau	47.3	15.83333	422
Pöggstall	48.31734	15.20405	457
Poggersdorf	46.65	14.45	456
Podersdorf am See	47.85412	16.83706	120
Pöchlarn	48.2	15.2	214
Plesching	48.32099	14.33802	253
Plankenau	47.32673	13.19282	856
Plainfeld	47.83333	13.18333	621
Pitzenberg	48.07361	13.72484	443
Pitten	47.71667	16.18333	324
Pitschgau	46.7	15.26667	352
Pistorf	46.76667	15.36667	321
Pischelsdorf in der Steiermark	47.17417	15.80572	376
Pirka	47	15.38333	379
Piringsdorf	47.44826	16.41516	304
Pirching am Traubenberg	46.95	15.6	354
Pinsdorf	47.9298	13.77068	492
Pinkafeld	47.36667	16.11667	389
Pinggau	47.44232	16.06713	597
Pillichsdorf	48.35	16.53333	161
Pill	47.32352	11.68018	543
Pilgersdorf	47.44106	16.3492	365
Piesendorf	47.29077	12.71839	769
Pierbach	48.34815	14.75575	495
Pichling bei Köflach	47.04785	15.07098	484
Pichl bei Wels	48.18515	13.89882	329
Pichl	47.28333	12.85	750
Piberegg	47.09424	15.11658	472
Pians	47.13486	10.51237	848
Pfunds	46.96667	10.55	992
Pfons	47.14201	11.46071	1028
Pflach	47.51667	10.71667	839
Pfarrkirchen bei Bad Hall	48.03046	14.19914	381
Pfaffstätten	48.01737	16.26354	217
Pfaffing	48.018	13.47507	539
Pfaffenhofen	47.3	11.08333	634
Peuerbach	48.3453	13.77205	394
Petzenkirchen	48.14693	15.15465	238
Pettneu	47.14595	10.33655	1193
Pettenbach	47.96016	14.01692	486
Petronell-Carnuntum	48.11296	16.86582	177
Perwang am Grabensee	48.00692	13.083	524
Pertlstein	46.94056	15.96167	269
Persenbeug	48.18733	15.08809	219
Pernitz	47.89759	15.96022	429
Pernersdorf	48.7	16.01667	214
Pernegg an der Mur	47.35979	15.34236	458
Pernegg	48.73333	15.61667	507
Perlsdorf	46.91361	15.81417	306
Perg	48.25	14.63333	252
Perchtoldsdorf	48.11935	16.26607	257
Perchau am Sattel	47.1	14.45	1005
Penz	48.03333	14.48333	445
Pennewang	48.13333	13.85	390
Peggau	47.2	15.35	409
Payerbach	47.69209	15.8634	473
Paudorf	48.35416	15.61853	261
Pattigham	48.15521	13.48443	509
Patsch	47.20527	11.4151	1001
Paternion	46.71417	13.63611	513
Passail	47.28333	15.51667	693
Pasching	48.25931	14.20369	294
Parschlug	47.4809	15.28645	702
Parndorf	47.99963	16.86049	181
Parbasdorf	48.28333	16.6	162
Pamhagen	47.70092	16.90779	121
Pama	48.05	17.03333	134
Palting	48.01542	13.12712	514
Palfau	47.7	14.8	586
Paldau	46.94222	15.79583	316
Pack	46.97917	14.98417	1094
Pabneukirchen	48.32367	14.81747	583
Oeynhausen	47.98533	16.29187	214
Oetz	47.2	10.9	786
Otterthal	47.61667	15.93333	689
Ottenthal	48.761	16.57914	234
Ottensheim	48.33246	14.17425	269
Ottenschlag im Mühlkreis	48.46632	14.38471	808
Ottenschlag	48.42393	15.21924	849
Ottakring	48.21667	16.3	247
Osterwitz	46.85943	15.08998	1146
Ostermiething	48.04636	12.82937	393
Ossiach	46.67435	13.98358	516
Oslip	47.82906	16.61957	133
Ort im Innkreis	48.31654	13.43362	354
Orth an der Donau	48.14524	16.70089	150
Ortgraben	47.45	16.05	719
Opponitz	47.87776	14.82283	415
Oppenberg	47.48333	14.26667	1042
Ollersdorf im Burgenland	47.18333	16.16667	308
Olbendorf	47.18333	16.2	310
Ohlsdorf	47.96073	13.79145	533
Oggau	47.83333	16.66667	121
Offenhausen	48.15	13.83333	382
Oepping	48.60284	13.94586	624
Oehling	48.1	14.8	297
Oedt	48.21335	14.21013	277
Öblarn	47.45938	13.99023	668
Oberzeiring	47.25	14.48333	937
Oberwölz Stadt	47.20117	14.28321	825
Oberwölbling	48.31719	15.59166	324
Oberweg	47.15	14.63333	896
Oberwart	47.28971	16.20595	316
Oberwang	47.86667	13.43333	573
Oberwaltersdorf	47.97567	16.32191	212
Oberwagram	48.20157	15.64917	267
Obervogau	46.745	15.58472	260
Obervellach	46.93667	13.20417	802
Obertrum am See	47.93722	13.07722	508
Obertilliach	46.71056	12.61444	1472
Oberstorcha	46.96667	15.8	298
Obersiebenbrunn	48.26537	16.71076	148
Obersdorf	48.36667	16.51667	167
Oberschützen	47.35138	16.20732	355
Oberrettenbach	47.15	15.8	407
Oberpullendorf	47.50352	16.50447	246
Oberpremstätten	46.97444	15.40444	332
Pettnau	47.29204	11.15962	610
Oberneukirchen	48.46404	14.22275	768
Oberndorf in Tirol	47.5	12.38333	689
Oberndorf bei Schwanenstadt	48.05559	13.75677	392
Oberndorf bei Salzburg	47.95	12.93333	430
Oberndorf an der Melk	48.06386	15.2243	321
Oberndorf in der Ebene	48.2704	15.68985	235
Obernberg am Inn	48.32133	13.33427	356
